institution_name,longitude,latitude,fips_state_code,total_enrollment,full-time_enrollment,part-time_enrollment,control,level
Aaniiih Nakoda College,-108.757816,48.484196,Montana,150.0,108.0,42.0,Public,2-year
Abilene Christian University,-99.709797,32.468943,Texas,5204.0,3730.0,1474.0,Private not-for-profit,4-year or above
Abraham Baldwin Agricultural College,-83.528281,31.481889,Georgia,4291.0,2660.0,1631.0,Public,4-year or above
Abraham Lincoln University,-118.256726,34.146294,California,217.0,194.0,23.0,Private for-profit,4-year or above
Academy College,-93.299809,44.855722,Minnesota,99.0,81.0,18.0,Private for-profit,4-year or above
Academy for Nursing and Health Occupations,-80.12149699999998,26.70653,Florida,466.0,417.0,49.0,Private not-for-profit,2-year
Academy of Art University,-122.400578,37.787943,California,10616.0,6175.0,4441.0,Private for-profit,4-year or above
Academy of Interactive Entertainment,-92.043315,30.220037,Louisiana,64.0,64.0,0.0,Private not-for-profit,2-year
Academy of Natural Therapy Inc,-104.691075,40.426259,Colorado,46.0,0.0,46.0,Private for-profit,2-year
Acupuncture and Massage College,-80.364141,25.686382,Florida,169.0,169.0,0.0,Private for-profit,4-year or above
Adams State University,-105.879642,37.473636,Colorado,3110.0,1878.0,1232.0,Public,4-year or above
Adelphi University,-73.65332099999998,40.721439,New York,8146.0,6562.0,1584.0,Private not-for-profit,4-year or above
Adirondack Community College,-73.654813,43.351839,New York,3727.0,2090.0,1637.0,Public,2-year
Adrian College,-84.061481,41.898591,Michigan,1856.0,1781.0,75.0,Private not-for-profit,4-year or above
Advance Science International College,-80.307736,25.855863,Florida,9.0,9.0,0.0,Private for-profit,2-year
Advanced College,-118.15794,33.915383,California,9.0,9.0,0.0,Private for-profit,2-year
Advanced College-Stockton,-121.29453,38.02555200000001,California,53.0,31.0,22.0,Private for-profit,2-year
Advanced Technology Institute,-76.18226800000002,36.841381,Virginia,609.0,609.0,0.0,Private for-profit,2-year
Advanced Training Associates,-116.981781,32.819023,California,96.0,96.0,0.0,Private for-profit,2-year
AdventHealth University,-81.367687,28.576142,Florida,1705.0,831.0,874.0,Private not-for-profit,4-year or above
Advertising Art Educational Services DBA School of Advertising Art,-84.13426899999997,39.681305,Ohio,210.0,210.0,0.0,Private for-profit,2-year
Agnes Scott College,-84.295459,33.769268,Georgia,1030.0,998.0,32.0,Private not-for-profit,4-year or above
AI Miami International University of Art and Design,-80.18839,25.790008,Florida,1384.0,916.0,468.0,Private for-profit,4-year or above
Aiken Technical College,-81.841666,33.533833,South Carolina,2267.0,711.0,1556.0,Public,2-year
Aims Community College,-104.763415,40.409559,Colorado,6250.0,2157.0,4093.0,Public,2-year
Alabama A & M University,-86.568502,34.783368,Alabama,6106.0,5492.0,614.0,Public,4-year or above
Alabama State University,-86.295677,32.364317,Alabama,4413.0,3934.0,479.0,Public,4-year or above
Alamance Community College,-79.35765699999997,36.06668300000001,North Carolina,4248.0,1581.0,2667.0,Public,2-year
Alaska Bible College,-149.111972,61.598553,Alaska,45.0,32.0,13.0,Private not-for-profit,4-year or above
Alaska Career College,-149.856954,61.181443,Alaska,415.0,415.0,0.0,Private for-profit,2-year
Alaska Christian College,-151.136005,60.490459,Alaska,81.0,73.0,8.0,Private not-for-profit,2-year
Alaska Pacific University,-149.804168,61.19096800000001,Alaska,502.0,258.0,244.0,Private not-for-profit,4-year or above
Albany College of Pharmacy and Health Sciences,-73.779063,42.650371,New York,1331.0,1319.0,12.0,Private not-for-profit,4-year or above
Albany State University,-84.141825,31.56928,Georgia,6371.0,4367.0,2004.0,Public,4-year or above
Albany Technical College,-84.174284,31.554340000000003,Georgia,3181.0,1213.0,1968.0,Public,2-year
Albertus Magnus College,-72.92384799999998,41.332519,Connecticut,1456.0,1182.0,274.0,Private not-for-profit,4-year or above
Albion College,-84.745639,42.245049,Michigan,1533.0,1509.0,24.0,Private not-for-profit,4-year or above
Albright College,-75.90974200000002,40.361351,Pennsylvania,1934.0,1887.0,47.0,Private not-for-profit,4-year or above
Alcorn State University,-91.142854,31.877216,Mississippi,3658.0,3009.0,649.0,Public,4-year or above
Alderson Broaddus University,-80.047728,39.158067,West Virginia,911.0,859.0,52.0,Private not-for-profit,4-year or above
Alexandria Technical & Community College,-95.372369,45.873107,Minnesota,2614.0,1165.0,1449.0,Public,2-year
Alfred University,-77.788106,42.254476,New York,2302.0,1727.0,575.0,Private not-for-profit,4-year or above
Alice Lloyd College,-82.875068,37.335087,Kentucky,644.0,618.0,26.0,Private not-for-profit,4-year or above
All-State Career School-Allied Health Campus,-75.302151,39.866163,Pennsylvania,313.0,313.0,0.0,Private for-profit,2-year
Allan Hancock College,-120.421144,34.943715999999995,California,11285.0,3560.0,7725.0,Public,2-year
Allegany College of Maryland,-78.730398,39.652152,Maryland,2585.0,1095.0,1490.0,Public,2-year
Allegheny College,-80.14716800000002,41.64869,Pennsylvania,1771.0,1724.0,47.0,Private not-for-profit,4-year or above
Allegheny Wesleyan College,-80.861232,40.86722,Ohio,72.0,58.0,14.0,Private not-for-profit,4-year or above
Allen College,-92.340148,42.530084,Iowa,662.0,406.0,256.0,Private not-for-profit,4-year or above
Allen County Community College,-95.396377,37.938038,Kansas,2540.0,1030.0,1510.0,Public,2-year
Allen University,-81.020045,34.010348,South Carolina,743.0,688.0,55.0,Private not-for-profit,4-year or above
Alliant International University-San Diego,-117.094398,32.897056,California,3780.0,1455.0,2325.0,Private for-profit,4-year or above
Alma College,-84.672053,43.38004,Michigan,1433.0,1397.0,36.0,Private not-for-profit,4-year or above
Alpena Community College,-83.44506899999998,45.081647,Michigan,1429.0,670.0,759.0,Public,4-year or above
Altierus Career College-Bissonnet,-95.544702,29.677415000000003,Texas,383.0,382.0,1.0,Private not-for-profit,2-year
Altierus Career College-Norcross,-84.155475,33.934121000000005,Georgia,434.0,411.0,23.0,Private not-for-profit,2-year
Altierus Career College-Tampa,-82.49761600000002,27.996582,Florida,222.0,216.0,6.0,Private not-for-profit,2-year
Altierus Career College-Thornton,-104.985441,39.86156,Colorado,7.0,7.0,0.0,Private not-for-profit,2-year
Alvernia University,-75.93675400000002,40.310028,Pennsylvania,2792.0,1946.0,846.0,Private not-for-profit,4-year or above
Alverno College,-87.965174,42.982842,Wisconsin,1851.0,1384.0,467.0,Private not-for-profit,4-year or above
Alvin Community College,-95.240671,29.396244,Texas,5573.0,1302.0,4271.0,Public,2-year
Amarillo College,-101.846988,35.18783900000001,Texas,9854.0,3236.0,6618.0,Public,2-year
Amberton University,-96.65302,32.859931,Texas,1182.0,113.0,1069.0,Private not-for-profit,4-year or above
Ambria College of Nursing,-88.2109,42.075628,Illinois,234.0,8.0,226.0,Private for-profit,4-year or above
America Evangelical University,-118.308661,34.041239000000004,California,85.0,49.0,36.0,Private not-for-profit,4-year or above
American Academy McAllister Institute of Funeral Service,-73.993782,40.769031,New York,440.0,61.0,379.0,Private not-for-profit,2-year
American Academy of Art,-87.624788,41.87742,Illinois,242.0,181.0,61.0,Private not-for-profit,4-year or above
American Academy of Dramatic Arts-Los Angeles,-118.343701,34.095378000000004,California,263.0,263.0,0.0,Private not-for-profit,2-year
American Academy of Dramatic Arts-New York,-73.98484300000001,40.745545,New York,270.0,270.0,0.0,Private not-for-profit,2-year
American Baptist College,-86.789912,36.202623,Tennessee,123.0,98.0,25.0,Private not-for-profit,4-year or above
American Business and Technology University,-94.819797,39.779095,Missouri,404.0,404.0,0.0,Private for-profit,4-year or above
American Career College-Anaheim,-117.975599,33.849912,California,1027.0,1027.0,0.0,Private for-profit,2-year
American Career College-Los Angeles,-118.292481,34.079322999999995,California,1284.0,1284.0,0.0,Private for-profit,2-year
American Career College-Ontario,-117.583814,34.068203999999994,California,1280.0,1280.0,0.0,Private for-profit,2-year
American College for Medical Careers,-81.402271,28.470997,Florida,226.0,179.0,47.0,Private for-profit,4-year or above
American College of Healthcare Sciences,-122.675858,45.486902,Oregon,729.0,87.0,642.0,Private for-profit,4-year or above
American Institute of Alternative Medicine,-82.988733,40.102442,Ohio,425.0,260.0,165.0,Private for-profit,4-year or above
American InterContinental University,-88.032424,42.033191,Illinois,8777.0,6918.0,1859.0,Private for-profit,4-year or above
American InterContinental University-Atlanta,-84.354907,33.938779,Georgia,1806.0,1314.0,492.0,Private for-profit,4-year or above
American InterContinental University-Houston,-95.548302,29.728216,Texas,349.0,231.0,118.0,Private for-profit,4-year or above
American International College,-72.558338,42.112346,Massachusetts,3152.0,2852.0,300.0,Private not-for-profit,4-year or above
American Jewish University,-118.471706,34.128153000000005,California,168.0,131.0,37.0,Private not-for-profit,4-year or above
American Medical Academy,-80.393361,25.66273,Florida,461.0,415.0,46.0,Private for-profit,2-year
American Medical Sciences Center,-118.256991,34.147117,California,30.0,30.0,0.0,Private for-profit,2-year
American Musical and Dramatic Academy,-73.987549,40.772275,New York,1676.0,1676.0,0.0,Private not-for-profit,4-year or above
American National University,-80.023602,37.299743,Virginia,1072.0,501.0,571.0,Private for-profit,4-year or above
American National University-Dayton,-84.12734,39.70112,Ohio,,,,Private for-profit,2-year
American National University-Lexington,-84.421099,38.026996,Kentucky,299.0,151.0,148.0,Private for-profit,4-year or above
American Public University System,-77.86012099999998,39.287826,West Virginia,46088.0,2730.0,43358.0,Private for-profit,4-year or above
American River College,-121.349672,38.65085,California,31366.0,6173.0,25193.0,Public,2-year
American Sentinel University,-104.831161,39.67661,Colorado,2674.0,930.0,1744.0,Private for-profit,4-year or above
American Trade School,-90.380141,38.72876,Missouri,120.0,120.0,0.0,Private for-profit,2-year
American University,-77.088875,38.936005,District of Columbia,14311.0,11435.0,2876.0,Private not-for-profit,4-year or above
American University of Health Sciences,-118.171366,33.796849,California,293.0,293.0,0.0,Private for-profit,4-year or above
AmeriTech College-Draper,-111.892792,40.527932,Utah,723.0,421.0,302.0,Private for-profit,4-year or above
Amherst College,-72.518493,42.372459,Massachusetts,1855.0,1855.0,0.0,Private not-for-profit,4-year or above
Amridge University,-86.17401,32.362609,Alabama,755.0,295.0,460.0,Private not-for-profit,4-year or above
Ancilla College,-86.445263,41.337958,Indiana,415.0,305.0,110.0,Private not-for-profit,2-year
Anderson University,-85.664315,40.112768,Indiana,1722.0,1367.0,355.0,Private not-for-profit,4-year or above
Anderson University,-82.64035799999998,34.5152,South Carolina,3429.0,2775.0,654.0,Private not-for-profit,4-year or above
Andrew College,-84.79502099999998,31.772321,Georgia,293.0,205.0,88.0,Private not-for-profit,4-year or above
Andrews University,-86.355815,41.963859,Michigan,3407.0,2307.0,1100.0,Private not-for-profit,4-year or above
Angeles College,-118.29903,34.061223,California,263.0,238.0,25.0,Private for-profit,4-year or above
Angelina College,-94.731625,31.287444,Texas,4919.0,1574.0,3345.0,Public,2-year
Angelo State University,-100.465051,31.440914000000006,Texas,10387.0,6264.0,4123.0,Public,4-year or above
Anna Maria College,-71.91896,42.330542,Massachusetts,1461.0,1012.0,449.0,Private not-for-profit,4-year or above
Anne Arundel Community College,-76.51222299999998,39.049813,Maryland,12886.0,3661.0,9225.0,Public,2-year
Anoka Technical College,-93.416087,45.216709,Minnesota,1844.0,828.0,1016.0,Public,2-year
Anoka-Ramsey Community College,-93.351697,45.172978,Minnesota,8845.0,3329.0,5516.0,Public,2-year
Antelope Valley College,-118.186166,34.676207,California,14239.0,3989.0,10250.0,Public,4-year or above
Antioch College,-83.888077,39.799806,Ohio,102.0,102.0,0.0,Private not-for-profit,4-year or above
Antioch University-Los Angeles,-118.384458,33.988533000000004,California,802.0,589.0,213.0,Private not-for-profit,4-year or above
Antioch University-Midwest,-83.908684,39.80321,Ohio,118.0,74.0,44.0,Private not-for-profit,4-year or above
Antioch University-Santa Barbara,-119.6958,34.419203,California,344.0,252.0,92.0,Private not-for-profit,4-year or above
Antioch University-Seattle,-122.346318,47.615916,Washington,605.0,402.0,203.0,Private not-for-profit,4-year or above
Antonelli College-Cincinnati,-84.510735,39.104312,Ohio,56.0,56.0,0.0,Private for-profit,2-year
Antonelli College-Hattiesburg,-89.33569200000002,31.349549,Mississippi,155.0,145.0,10.0,Private for-profit,2-year
Antonelli College-Jackson,-90.12297,32.328918,Mississippi,193.0,142.0,51.0,Private for-profit,2-year
Apex School of Theology,-78.841386,35.922645,North Carolina,554.0,506.0,48.0,Private not-for-profit,4-year or above
Appalachian Bible College,-81.198867,37.853335,West Virginia,263.0,162.0,101.0,Private not-for-profit,4-year or above
Appalachian State University,-81.680583,36.215536,North Carolina,19108.0,17291.0,1817.0,Public,4-year or above
Aquinas College,-85.628785,42.96019,Michigan,1758.0,1333.0,425.0,Private not-for-profit,4-year or above
Arapahoe Community College,-105.018631,39.607505,Colorado,11544.0,1887.0,9657.0,Public,4-year or above
Arcadia University,-75.163876,40.092606,Pennsylvania,3662.0,2456.0,1206.0,Private not-for-profit,4-year or above
Arizona Christian University,-112.026211,33.595117,Arizona,776.0,642.0,134.0,Private not-for-profit,4-year or above
Arizona College-Glendale,-112.154233,33.56636,Arizona,428.0,428.0,0.0,Private for-profit,2-year
Arizona College-Las Vegas,-115.171331,36.1456,Nevada,500.0,264.0,236.0,Private for-profit,4-year or above
Arizona College-Mesa,-111.873428,33.418374,Arizona,771.0,513.0,258.0,Private for-profit,4-year or above
Arizona State University-Downtown Phoenix,-112.07347,33.452914,Arizona,11584.0,10062.0,1522.0,Public,4-year or above
Arizona State University-Polytechnic,-111.677225,33.307142,Arizona,5095.0,4372.0,723.0,Public,4-year or above
Arizona State University-Skysong,-111.92386100000002,33.463786,Arizona,38540.0,14115.0,24425.0,Public,4-year or above
Arizona State University-Tempe,-111.934383,33.417721,Arizona,51585.0,46180.0,5405.0,Public,4-year or above
Arizona State University-West,-112.160021,33.60726,Arizona,4445.0,3753.0,692.0,Public,4-year or above
Arizona Western College,-114.495968,32.689306,Arizona,7434.0,2166.0,5268.0,Public,2-year
Arkansas Baptist College,-92.290555,34.734751,Arkansas,525.0,460.0,65.0,Private not-for-profit,4-year or above
Arkansas Northeastern College,-89.92100500000002,35.89859699999999,Arkansas,1422.0,555.0,867.0,Public,2-year
Arkansas State University Mid-South,-90.22285,35.145736,Arkansas,1423.0,356.0,1067.0,Public,2-year
Arkansas State University-Beebe,-91.895351,35.074176,Arkansas,3446.0,1779.0,1667.0,Public,2-year
Arkansas State University-Main Campus,-90.679988,35.842388,Arkansas,13709.0,7456.0,6253.0,Public,4-year or above
Arkansas State University-Mountain Home,-92.388581,36.320466,Arkansas,1345.0,605.0,740.0,Public,2-year
Arkansas State University-Newport,-91.188846,35.63872199999999,Arkansas,2270.0,1039.0,1231.0,Public,2-year
Arkansas Tech University,-93.13562,35.293237,Arkansas,12101.0,6583.0,5518.0,Public,4-year or above
Arlington Baptist University,-97.156024,32.739489,Texas,170.0,147.0,23.0,Private not-for-profit,4-year or above
Art Academy of Cincinnati,-84.513913,39.108805,Ohio,201.0,191.0,10.0,Private not-for-profit,4-year or above
Art Center College of Design,-118.185102,34.169031,California,2249.0,1952.0,297.0,Private not-for-profit,4-year or above
ASA College,-73.986027,40.692405,New York,4356.0,3828.0,528.0,Private for-profit,2-year
Asbury University,-84.66260600000003,37.862029,Kentucky,1940.0,1316.0,624.0,Private not-for-profit,4-year or above
Asher College,-121.415767,38.587784,California,596.0,38.0,558.0,Private for-profit,2-year
Asheville-Buncombe Technical Community College,-82.554826,35.570439,North Carolina,6892.0,2242.0,4650.0,Public,2-year
Ashford University,-117.141961,32.8273,California,34710.0,34706.0,4.0,Private for-profit,4-year or above
Ashland Community and Technical College,-82.650664,38.469201,Kentucky,2542.0,1261.0,1281.0,Public,2-year
Ashland University,-82.321061,40.861755,Ohio,6627.0,4524.0,2103.0,Private not-for-profit,4-year or above
Asnuntuck Community College,-72.570177,41.998409,Connecticut,1858.0,621.0,1237.0,Public,2-year
Aspen University,-104.939111,39.68614,Colorado,5424.0,1421.0,4003.0,Private for-profit,4-year or above
Associated Beth Rivkah Schools,-73.949993,40.665998,New York,195.0,195.0,0.0,Private not-for-profit,4-year or above
Assumption College,-71.828991,42.294226,Massachusetts,2428.0,2110.0,318.0,Private not-for-profit,4-year or above
ATA Career Education,-82.595376,28.452699,Florida,265.0,265.0,0.0,Private for-profit,2-year
ATA College,-85.563365,38.223667,Kentucky,352.0,352.0,0.0,Private for-profit,2-year
Athena Career Academy,-83.665339,41.61463300000001,Ohio,283.0,283.0,0.0,Private for-profit,2-year
Athens State University,-86.964698,34.806793,Alabama,3044.0,1229.0,1815.0,Public,4-year or above
Athens Technical College,-83.339598,33.990183,Georgia,4567.0,1130.0,3437.0,Public,2-year
Atlanta Institute of Music and Media,-84.105311,33.961164000000004,Georgia,182.0,94.0,88.0,Private for-profit,2-year
Atlanta Metropolitan State College,-84.404659,33.70893,Georgia,2187.0,906.0,1281.0,Public,4-year or above
Atlanta Technical College,-84.404995,33.712009,Georgia,3562.0,1303.0,2259.0,Public,2-year
Atlantic Cape Community College,-74.680019,39.462081,New Jersey,4973.0,2207.0,2766.0,Public,2-year
Atlantic Institute of Oriental Medicine,-80.142235,26.121964,Florida,134.0,134.0,0.0,Private not-for-profit,4-year or above
Atlantis University,-80.18942,25.788978,Florida,341.0,303.0,38.0,Private for-profit,4-year or above
Auburn University,-85.488258,32.599378,Alabama,30440.0,25806.0,4634.0,Public,4-year or above
Auburn University at Montgomery,-86.177544,32.36736,Alabama,5211.0,3775.0,1436.0,Public,4-year or above
Augsburg University,-93.240436,44.966307,Minnesota,3419.0,2748.0,671.0,Private not-for-profit,4-year or above
Augusta Technical College,-82.048439,33.418992,Georgia,4409.0,1847.0,2562.0,Public,2-year
Augusta University,-81.989071,33.47037,Georgia,8458.0,6840.0,1618.0,Public,4-year or above
Augustana College,-90.55057,41.50236500000001,Illinois,2543.0,2534.0,9.0,Private not-for-profit,4-year or above
Augustana University,-96.736975,43.525148,South Dakota,2133.0,1754.0,379.0,Private not-for-profit,4-year or above
Auguste Escoffier School of Culinary Arts-Austin,-97.717865,30.326455,Texas,506.0,506.0,0.0,Private for-profit,2-year
Auguste Escoffier School of Culinary Arts-Boulder,-105.250075,39.983475,Colorado,2289.0,2289.0,0.0,Private for-profit,2-year
Aultman College of Nursing and Health Sciences,-81.404053,40.796186,Ohio,343.0,106.0,237.0,Private not-for-profit,4-year or above
Aurora University,-88.349023,41.753631,Illinois,6005.0,4367.0,1638.0,Private not-for-profit,4-year or above
Austin College,-96.596331,33.646345000000004,Texas,1299.0,1295.0,4.0,Private not-for-profit,4-year or above
Austin Community College District,-97.712505,30.322744,Texas,40799.0,8983.0,31816.0,Public,4-year or above
Austin Graduate School of Theology,-97.711751,30.343842,Texas,37.0,7.0,30.0,Private not-for-profit,4-year or above
Austin Peay State University,-87.35408100000002,36.533319,Tennessee,10954.0,7325.0,3629.0,Public,4-year or above
Ave Maria University,-81.43894499999998,26.335983,Florida,1122.0,1110.0,12.0,Private not-for-profit,4-year or above
Averett University,-79.413203,36.577287,Virginia,961.0,930.0,31.0,Private not-for-profit,4-year or above
Averett University-Non-Traditional Programs,-79.413203,36.577287,Virginia,612.0,248.0,364.0,Private not-for-profit,4-year or above
Aviation Institute of Maintenance-Atlanta,-84.147864,33.948914,Georgia,768.0,594.0,174.0,Private for-profit,2-year
Aviator College of Aeronautical Science and Technology,-80.367303,27.48718,Florida,317.0,317.0,0.0,Private for-profit,2-year
Avila University,-94.591758,38.91339,Missouri,1649.0,1341.0,308.0,Private not-for-profit,4-year or above
Azusa Pacific University,-117.888375,34.130047,California,10095.0,7194.0,2901.0,Private not-for-profit,4-year or above
Babson College,-71.264057,42.297017,Massachusetts,3357.0,2905.0,452.0,Private not-for-profit,4-year or above
Bacone College,-95.334046,35.777082,Oklahoma,271.0,243.0,28.0,Private not-for-profit,4-year or above
Bais Binyomin Academy,-74.081172,41.123098,New York,34.0,34.0,0.0,Private not-for-profit,4-year or above
Bais HaMedrash and Mesivta of Baltimore,-76.674414,39.379528,Maryland,80.0,80.0,0.0,Private not-for-profit,4-year or above
Bais Medrash Elyon,-74.06979799999998,41.114079,New York,69.0,69.0,0.0,Private not-for-profit,4-year or above
Bais Medrash Mayan Hatorah,-74.204332,40.107414,New Jersey,69.0,67.0,2.0,Private not-for-profit,4-year or above
Bais Medrash Toras Chesed,-74.21127,40.099704,New Jersey,106.0,103.0,3.0,Private not-for-profit,4-year or above
Baker College,-83.69467900000002,42.974764,Michigan,9332.0,3852.0,5480.0,Private not-for-profit,4-year or above
Baker University,-95.188231,38.777278,Kansas,2769.0,1119.0,1650.0,Private not-for-profit,4-year or above
Bakersfield College,-118.973753,35.40911,California,24589.0,7351.0,17238.0,Public,4-year or above
Baldwin Wallace University,-81.85114499999997,41.373017,Ohio,3709.0,3263.0,446.0,Private not-for-profit,4-year or above
Ball State University,-85.40904300000003,40.203431,Indiana,21884.0,15926.0,5958.0,Public,4-year or above
Baltimore City Community College,-76.662878,39.319978000000006,Maryland,4523.0,1547.0,2976.0,Public,2-year
Baptist Bible College,-93.284286,37.239696,Missouri,256.0,218.0,38.0,Private not-for-profit,4-year or above
Baptist Health College Little Rock,-92.40692,34.713115,Arkansas,648.0,588.0,60.0,Private not-for-profit,2-year
Baptist Health System School of Health Professions,-98.567486,29.517063,Texas,649.0,606.0,43.0,Private for-profit,4-year or above
Baptist Memorial College of Health Sciences,-90.027501,35.138415,Tennessee,1064.0,494.0,570.0,Private not-for-profit,4-year or above
Baptist Missionary Association Theological Seminary,-95.255524,31.978961,Texas,141.0,34.0,107.0,Private not-for-profit,4-year or above
Baptist University of the Americas,-98.546081,29.34998,Texas,154.0,113.0,41.0,Private not-for-profit,4-year or above
Barclay College,-99.105351,37.62012,Kansas,243.0,197.0,46.0,Private not-for-profit,4-year or above
Bard College,-73.909927,42.020386,New York,2207.0,2121.0,86.0,Private not-for-profit,4-year or above
Bard College at Simon's Rock,-73.379201,42.208803,Massachusetts,396.0,385.0,11.0,Private not-for-profit,4-year or above
Barnard College,-73.963346,40.810098,New York,2562.0,2519.0,43.0,Private not-for-profit,4-year or above
Barnes-Jewish College Goldfarb School of Nursing,-90.258772,38.637165,Missouri,634.0,629.0,5.0,Private not-for-profit,4-year or above
Barry University,-80.198925,25.878908,Florida,7186.0,5126.0,2060.0,Private not-for-profit,4-year or above
Barstow Community College,-117.023412,34.870285,California,3052.0,1186.0,1866.0,Public,2-year
Barton College,-77.91386700000002,35.734376,North Carolina,1059.0,973.0,86.0,Private not-for-profit,4-year or above
Barton County Community College,-98.731648,38.403529,Kansas,4237.0,890.0,3347.0,Public,2-year
Bastyr University,-122.251708,47.729935,Washington,1098.0,919.0,179.0,Private not-for-profit,4-year or above
Bates College,-70.203333,44.105299,Maine,1832.0,1832.0,0.0,Private not-for-profit,4-year or above
Bates Technical College,-122.44683,47.251743,Washington,4445.0,2033.0,2412.0,Public,2-year
Baton Rouge Community College,-91.137935,30.448276,Louisiana,8242.0,4020.0,4222.0,Public,2-year
Baton Rouge School of Computers,-91.080837,30.422155,Louisiana,58.0,36.0,22.0,Private for-profit,2-year
Bay de Noc Community College,-87.085228,45.772586,Michigan,1935.0,718.0,1217.0,Public,2-year
Bay Mills Community College,-84.607089,46.454584,Michigan,477.0,192.0,285.0,Public,4-year or above
Bay Path University,-72.583382,42.055088,Massachusetts,3444.0,1955.0,1489.0,Private not-for-profit,4-year or above
Bay State College,-71.076991,42.35176,Massachusetts,700.0,369.0,331.0,Private for-profit,4-year or above
Baylor University,-97.121041,31.546872,Texas,17217.0,16451.0,766.0,Private not-for-profit,4-year or above
Be'er Yaakov Talmudic Seminary,-74.028425,41.13905,New York,569.0,569.0,0.0,Private not-for-profit,4-year or above
Beacon College,-81.87415,28.811281,Florida,400.0,385.0,15.0,Private not-for-profit,4-year or above
Beal College,-68.785428,44.786465,Maine,207.0,169.0,38.0,Private for-profit,2-year
Beaufort County Community College,-76.96535,35.533587,North Carolina,1543.0,461.0,1082.0,Public,2-year
Becker College,-71.811894,42.269171,Massachusetts,1839.0,1478.0,361.0,Private not-for-profit,4-year or above
Beckfield College-Florence,-84.641475,39.017166,Kentucky,687.0,303.0,384.0,Private for-profit,4-year or above
Beis Medrash Heichal Dovid,-73.751633,40.596845,New York,125.0,125.0,0.0,Private not-for-profit,4-year or above
Bel-Rea Institute of Animal Technology,-104.876207,39.686194,Colorado,275.0,275.0,0.0,Private for-profit,2-year
Belanger School of Nursing,-73.91588399999998,42.802979,New York,105.0,21.0,84.0,Private not-for-profit,2-year
Belhaven University,-90.169228,32.318415,Mississippi,4205.0,1188.0,3017.0,Private not-for-profit,4-year or above
Bellarmine University,-85.70499699999998,38.219279,Kentucky,3369.0,2762.0,607.0,Private not-for-profit,4-year or above
Bellevue College,-122.150118,47.584014,Washington,13226.0,6866.0,6360.0,Public,4-year or above
Bellevue University,-95.91764,41.150225,Nebraska,9621.0,5586.0,4035.0,Private not-for-profit,4-year or above
Bellin College,-87.921722,44.468277,Wisconsin,477.0,270.0,207.0,Private not-for-profit,4-year or above
Bellingham Technical College,-122.51216,48.766189,Washington,2316.0,1441.0,875.0,Public,4-year or above
Belmont Abbey College,-81.041315,35.260651,North Carolina,1556.0,1440.0,116.0,Private not-for-profit,4-year or above
Belmont College,-80.964901,40.07695,Ohio,982.0,462.0,520.0,Public,2-year
Belmont University,-86.79480699999998,36.135589,Tennessee,8260.0,7521.0,739.0,Private not-for-profit,4-year or above
Beloit College,-89.029285,42.504022,Wisconsin,1275.0,1228.0,47.0,Private not-for-profit,4-year or above
Bemidji State University,-94.874119,47.482341,Minnesota,5111.0,3352.0,1759.0,Public,4-year or above
Benedict College,-81.020403,34.012941,South Carolina,2165.0,2114.0,51.0,Private not-for-profit,4-year or above
Benedictine College,-95.111473,39.572646,Kansas,2124.0,1974.0,150.0,Private not-for-profit,4-year or above
Benedictine University,-88.097307,41.777569,Illinois,4940.0,2737.0,2203.0,Private not-for-profit,4-year or above
Benjamin Franklin Institute of Technology,-71.070231,42.346023,Massachusetts,630.0,476.0,154.0,Private not-for-profit,4-year or above
Bennett College,-79.77998000000002,36.067531,North Carolina,534.0,463.0,71.0,Private not-for-profit,4-year or above
Bennington College,-73.237799,42.919547,Vermont,811.0,780.0,31.0,Private not-for-profit,4-year or above
Bentley University,-71.22283900000002,42.385995,Massachusetts,5460.0,4879.0,581.0,Private not-for-profit,4-year or above
Berea College,-84.292893,37.57202,Kentucky,1673.0,1631.0,42.0,Private not-for-profit,4-year or above
Bergen Community College,-74.08880400000002,40.951782,New Jersey,13352.0,7320.0,6032.0,Public,2-year
Bergin University of Canine Studies,-122.681639,38.303233,California,60.0,34.0,26.0,Private not-for-profit,4-year or above
Berkeley City College,-122.269877,37.869769,California,6053.0,1648.0,4405.0,Public,2-year
Berkeley College-New York,-73.979458,40.753986,New York,3696.0,2834.0,862.0,Private for-profit,4-year or above
Berkeley College-Woodland Park,-74.189483,40.898587,New Jersey,3468.0,2445.0,1023.0,Private for-profit,4-year or above
Berklee College of Music,-71.089405,42.346646,Massachusetts,6963.0,5459.0,1504.0,Private not-for-profit,4-year or above
Berkshire Community College,-73.314704,42.45975,Massachusetts,1696.0,553.0,1143.0,Public,2-year
Berry College,-85.18920200000002,34.290414,Georgia,2014.0,1934.0,80.0,Private not-for-profit,4-year or above
Best Care College,-74.22111600000002,40.765332,New Jersey,33.0,33.0,0.0,Private for-profit,2-year
Bet Medrash Gadol Ateret Torah,-73.969945,40.607809,New York,106.0,106.0,0.0,Private not-for-profit,4-year or above
Beth Hamedrash Shaarei Yosher Institute,-73.981202,40.635444,New York,74.0,74.0,0.0,Private not-for-profit,4-year or above
Beth Medrash Govoha,-74.2221,40.09568,New Jersey,6655.0,6286.0,369.0,Private not-for-profit,4-year or above
Beth Medrash Meor Yitzchok,-74.060843,41.100906,New York,139.0,139.0,0.0,Private not-for-profit,4-year or above
Beth Medrash of Asbury Park,-74.21081600000002,40.043705,New Jersey,58.0,58.0,0.0,Private not-for-profit,4-year or above
Bethany College,-80.560056,40.205819,West Virginia,581.0,574.0,7.0,Private not-for-profit,4-year or above
Bethany College,-97.67367,38.580598,Kansas,891.0,837.0,54.0,Private not-for-profit,4-year or above
Bethany Global University,-93.371754,44.795501,Minnesota,346.0,310.0,36.0,Private not-for-profit,4-year or above
Bethany Lutheran College,-93.990805,44.166649,Minnesota,739.0,593.0,146.0,Private not-for-profit,4-year or above
Bethel College,-76.409526,37.04127,Virginia,31.0,12.0,19.0,Private not-for-profit,4-year or above
Bethel College-Indiana,-86.194686,41.678399,Indiana,1513.0,1102.0,411.0,Private not-for-profit,4-year or above
Bethel College-North Newton,-97.343256,38.075169,Kansas,444.0,430.0,14.0,Private not-for-profit,4-year or above
Bethel University,-88.516762,36.137848,Tennessee,5407.0,3555.0,1852.0,Private not-for-profit,4-year or above
Bethel University,-93.161663,45.057655,Minnesota,3692.0,2801.0,891.0,Private not-for-profit,4-year or above
Bethesda University,-117.941323,33.842295,California,371.0,254.0,117.0,Private not-for-profit,4-year or above
Bethune-Cookman University,-81.032946,29.207195,Florida,3773.0,3608.0,165.0,Private not-for-profit,4-year or above
Beulah Heights University,-84.35768,33.736993,Georgia,416.0,155.0,261.0,Private not-for-profit,4-year or above
Beverly Hills Design Institute,-118.375621,34.06463,California,9.0,5.0,4.0,Private for-profit,4-year or above
Bevill State Community College,-87.266406,33.836929,Alabama,3745.0,1455.0,2290.0,Public,2-year
Big Bend Community College,-119.325678,47.183651,Washington,2044.0,1456.0,588.0,Public,2-year
Big Sandy Community and Technical College,-82.778847,37.688248,Kentucky,4375.0,1792.0,2583.0,Public,2-year
Binghamton University,-75.966889,42.087868,New York,17768.0,15748.0,2020.0,Public,4-year or above
Biola University,-118.014374,33.906203000000005,California,6109.0,4656.0,1453.0,Private not-for-profit,4-year or above
Birmingham Southern College,-86.85055200000002,33.513774,Alabama,1268.0,1261.0,7.0,Private not-for-profit,4-year or above
Birthingway College of Midwifery,-122.538471,45.476809,Oregon,31.0,10.0,21.0,Private not-for-profit,4-year or above
Bishop State Community College,-88.05698199999998,30.693972,Alabama,2860.0,1425.0,1435.0,Public,2-year
Bismarck State College,-100.816534,46.821459,North Dakota,3778.0,2040.0,1738.0,Public,4-year or above
Black Hawk College,-90.447799,41.477283,Illinois,4333.0,1625.0,2708.0,Public,2-year
Black Hills State University,-103.870966,44.494889,South Dakota,4035.0,2062.0,1973.0,Public,4-year or above
Black River Technical College,-90.951033,36.239793,Arkansas,1582.0,902.0,680.0,Public,2-year
Blackburn College,-89.87024100000002,39.287896,Illinois,566.0,548.0,18.0,Private not-for-profit,4-year or above
Blackfeet Community College,-113.00938700000002,48.551927,Montana,305.0,249.0,56.0,Private not-for-profit,2-year
Blackhawk Technical College,-89.016254,42.593159,Wisconsin,2222.0,820.0,1402.0,Public,2-year
Bladen Community College,-78.73111899999998,34.644690999999995,North Carolina,1017.0,187.0,830.0,Public,2-year
Blessing Rieman College of Nursing and Health Sciences,-91.399045,39.936549,Illinois,211.0,145.0,66.0,Private not-for-profit,4-year or above
Blinn College,-96.40852,30.160457,Texas,21623.0,9431.0,12192.0,Public,2-year
Bloomfield College,-74.19430899999998,40.795105,New Jersey,1685.0,1570.0,115.0,Private not-for-profit,4-year or above
Bloomsburg University of Pennsylvania,-76.44784399999998,41.00782,Pennsylvania,8909.0,7836.0,1073.0,Public,4-year or above
Blue Cliff College-Alexandria,-92.475371,31.276699,Louisiana,459.0,459.0,0.0,Private for-profit,2-year
Blue Cliff College-Metairie,-90.172771,30.002779,Louisiana,861.0,861.0,0.0,Private for-profit,2-year
Blue Mountain College,-89.02924,34.672090000000004,Mississippi,640.0,587.0,53.0,Private not-for-profit,4-year or above
Blue Mountain Community College,-118.816944,45.677313,Oregon,1681.0,853.0,828.0,Public,2-year
Blue Ridge Community and Technical College,-78.001918,39.43529,West Virginia,6273.0,1113.0,5160.0,Public,2-year
Blue Ridge Community College,-82.42554399999999,35.30804000000001,North Carolina,2186.0,625.0,1561.0,Public,2-year
Blue Ridge Community College,-78.937471,38.279075,Virginia,4099.0,1191.0,2908.0,Public,2-year
Bluefield College,-81.24623299999998,37.244557,Virginia,1156.0,1008.0,148.0,Private not-for-profit,4-year or above
Bluefield State College,-81.239037,37.265732,West Virginia,1275.0,985.0,290.0,Public,4-year or above
Bluegrass Community and Technical College,-84.503665,38.024808,Kentucky,9525.0,4271.0,5254.0,Public,2-year
Bluffton University,-83.899439,40.895606,Ohio,770.0,667.0,103.0,Private not-for-profit,4-year or above
Bnos Zion Of Bobov Seminary,-73.991157,40.633353,New York,122.0,122.0,0.0,Private not-for-profit,2-year
Bob Jones University,-82.365838,34.874016,South Carolina,3005.0,2357.0,648.0,Private not-for-profit,4-year or above
Boise Bible College,-116.291321,43.658651,Idaho,110.0,96.0,14.0,Private not-for-profit,4-year or above
Boise State University,-116.203301,43.604284,Idaho,25504.0,13895.0,11609.0,Public,4-year or above
Bolivar Technical College,-93.421572,37.623766,Missouri,120.0,66.0,54.0,Private not-for-profit,2-year
Bon Secours Memorial College of Nursing,-77.43356899999998,37.646698,Virginia,458.0,222.0,236.0,Private not-for-profit,4-year or above
Boricua College,-73.9458,40.833434,New York,731.0,731.0,0.0,Private not-for-profit,4-year or above
Bossier Parish Community College,-93.646881,32.539551,Louisiana,6596.0,3434.0,3162.0,Public,2-year
Boston Architectural College,-71.085786,42.348467,Massachusetts,663.0,580.0,83.0,Private not-for-profit,4-year or above
Boston Baptist College,-71.1103,42.254037,Massachusetts,81.0,45.0,36.0,Private not-for-profit,4-year or above
Boston College,-71.16924200000003,42.336213,Massachusetts,14720.0,13165.0,1555.0,Private not-for-profit,4-year or above
Boston University,-71.10794200000002,42.351118,Massachusetts,34657.0,28287.0,6370.0,Private not-for-profit,4-year or above
Bowdoin College,-69.963942,43.907134,Maine,1828.0,1825.0,3.0,Private not-for-profit,4-year or above
Bowie State University,-76.759721,39.018185,Maryland,6320.0,4884.0,1436.0,Public,4-year or above
Bowling Green State University-Firelands,-82.59415600000001,41.39752100000001,Ohio,1997.0,986.0,1011.0,Public,2-year
Bowling Green State University-Main Campus,-83.640896,41.375513,Ohio,17540.0,14323.0,3217.0,Public,4-year or above
Bradford School,-82.911808,40.023538,Ohio,324.0,324.0,0.0,Private for-profit,2-year
Bradley University,-89.616786,40.696896,Illinois,5882.0,4839.0,1043.0,Private not-for-profit,4-year or above
Brandeis University,-71.26015500000003,42.365727,Massachusetts,5800.0,5267.0,533.0,Private not-for-profit,4-year or above
Brandman University,-117.76901200000002,33.656401,California,8766.0,3245.0,5521.0,Private not-for-profit,4-year or above
Brazosport College,-95.40934,29.048604,Texas,4311.0,825.0,3486.0,Public,4-year or above
Brenau University,-83.821513,34.303117,Georgia,2842.0,1528.0,1314.0,Private not-for-profit,4-year or above
Brescia University,-87.111639,37.769041,Kentucky,1015.0,802.0,213.0,Private not-for-profit,4-year or above
Brevard College,-82.72949399999997,35.236763,North Carolina,702.0,687.0,15.0,Private not-for-profit,4-year or above
Brewton-Parker College,-82.586136,32.185718,Georgia,826.0,454.0,372.0,Private not-for-profit,4-year or above
Briar Cliff University,-96.428444,42.526443,Iowa,1229.0,838.0,391.0,Private not-for-profit,4-year or above
BridgeValley Community & Technical College,-81.6983,38.353846,West Virginia,1689.0,1048.0,641.0,Public,2-year
Bridgewater College,-78.96900699999998,38.378484,Virginia,1857.0,1850.0,7.0,Private not-for-profit,4-year or above
Bridgewater State University,-70.974553,41.98749,Massachusetts,10990.0,8344.0,2646.0,Public,4-year or above
Brigham Young University-Hawaii,-157.926586,21.642074,Hawaii,3176.0,2868.0,308.0,Private not-for-profit,4-year or above
Brigham Young University-Idaho,-111.782431,43.81840800000001,Idaho,42341.0,18335.0,24006.0,Private not-for-profit,4-year or above
Brigham Young University-Provo,-111.649281,40.250851,Utah,34499.0,30162.0,4337.0,Private not-for-profit,4-year or above
Bristol Community College,-71.11913299999998,41.721994,Massachusetts,7214.0,3051.0,4163.0,Public,2-year
Broadview University-West Jordan,-111.942296,40.609883,Utah,69.0,57.0,12.0,Private for-profit,4-year or above
Brookdale Community College,-74.132746,40.324906,New Jersey,11856.0,5535.0,6321.0,Public,2-year
Brookhaven College,-96.850152,32.928231,Texas,13726.0,1795.0,11931.0,Public,2-year
Brookline College-Albuquerque,-106.68749,35.08781,New Mexico,312.0,296.0,16.0,Private for-profit,4-year or above
Brookline College-Phoenix,-112.112473,33.566102,Arizona,1251.0,713.0,538.0,Private for-profit,4-year or above
Brookline College-Tempe,-111.961365,33.4163,Arizona,373.0,220.0,153.0,Private for-profit,2-year
Brookline College-Tucson,-110.876375,32.207932,Arizona,290.0,201.0,89.0,Private for-profit,4-year or above
Broward College,-80.14183,26.119422,Florida,40784.0,11749.0,29035.0,Public,4-year or above
Brown College of Court Reporting,-84.389979,33.784769,Georgia,181.0,36.0,145.0,Private for-profit,2-year
Brown University,-71.40385,41.82617,Rhode Island,10257.0,9648.0,609.0,Private not-for-profit,4-year or above
Brunswick Community College,-78.22979000000002,34.038973,North Carolina,1482.0,553.0,929.0,Public,2-year
Bryan College of Health Sciences,-96.651532,40.796768,Nebraska,716.0,408.0,308.0,Private not-for-profit,4-year or above
Bryan College-Dayton,-84.99955200000002,35.49720900000001,Tennessee,1363.0,705.0,658.0,Private not-for-profit,4-year or above
Bryan University,-93.248107,37.135397,Missouri,194.0,194.0,0.0,Private for-profit,4-year or above
Bryan University,-94.17008,36.334163,Arkansas,56.0,56.0,0.0,Private for-profit,2-year
Bryan University,-111.944197,33.437779,Arizona,1083.0,1083.0,0.0,Private for-profit,4-year or above
Bryant & Stratton College-Akron,-81.65509499999997,41.1282,Ohio,123.0,74.0,49.0,Private for-profit,4-year or above
Bryant & Stratton College-Albany,-73.809977,42.698125,New York,419.0,287.0,132.0,Private for-profit,4-year or above
Bryant & Stratton College-Amherst,-78.742813,43.04079,New York,317.0,176.0,141.0,Private for-profit,4-year or above
Bryant & Stratton College-Bayshore,-87.9154,43.118941,Wisconsin,425.0,252.0,173.0,Private for-profit,4-year or above
Bryant & Stratton College-Buffalo,-78.873296,42.886492,New York,499.0,326.0,173.0,Private for-profit,4-year or above
Bryant & Stratton College-Cleveland,-81.666136,41.50300900000001,Ohio,202.0,108.0,94.0,Private for-profit,4-year or above
Bryant & Stratton College-Greece,-77.69559,43.240547,New York,223.0,156.0,67.0,Private for-profit,4-year or above
Bryant & Stratton College-Hampton,-76.39185,37.044229,Virginia,333.0,176.0,157.0,Private for-profit,4-year or above
Bryant & Stratton College-Henrietta,-77.602378,43.084122,New York,222.0,140.0,82.0,Private for-profit,2-year
Bryant & Stratton College-Online,-78.770363,42.790174,New York,4442.0,2924.0,1518.0,Private for-profit,4-year or above
Bryant & Stratton College-Parma,-81.781757,41.404607,Ohio,309.0,206.0,103.0,Private for-profit,4-year or above
Bryant & Stratton College-Racine,-87.86510600000003,42.717969,Wisconsin,103.0,67.0,36.0,Private for-profit,4-year or above
Bryant & Stratton College-Richmond,-77.543378,37.45955,Virginia,741.0,390.0,351.0,Private for-profit,4-year or above
Bryant & Stratton College-Solon,-81.445939,41.390012,Ohio,182.0,129.0,53.0,Private for-profit,4-year or above
Bryant & Stratton College-Southtowns,-78.768896,42.790162,New York,195.0,115.0,80.0,Private for-profit,4-year or above
Bryant & Stratton College-Syracuse,-76.136679,43.058795,New York,413.0,333.0,80.0,Private for-profit,2-year
Bryant & Stratton College-Syracuse North,-76.240137,43.189703,New York,263.0,173.0,90.0,Private for-profit,4-year or above
Bryant & Stratton College-Virginia Beach,-76.13819000000002,36.827826,Virginia,529.0,382.0,147.0,Private for-profit,4-year or above
Bryant & Stratton College-Wauwatosa,-88.050983,43.043215,Wisconsin,797.0,471.0,326.0,Private for-profit,4-year or above
Bryant University,-71.539547,41.920092,Rhode Island,3788.0,3622.0,166.0,Private not-for-profit,4-year or above
Bryn Athyn College of the New Church,-75.060808,40.134393,Pennsylvania,305.0,292.0,13.0,Private not-for-profit,4-year or above
Bryn Mawr College,-75.313223,40.02736,Pennsylvania,1690.0,1632.0,58.0,Private not-for-profit,4-year or above
Bucknell University,-76.882616,40.954317,Pennsylvania,3668.0,3621.0,47.0,Private not-for-profit,4-year or above
Bucks County Community College,-74.965841,40.239102,Pennsylvania,7761.0,2852.0,4909.0,Public,2-year
Buena Vista University,-95.208529,42.642255,Iowa,1846.0,1405.0,441.0,Private not-for-profit,4-year or above
Bunker Hill Community College,-71.069263,42.374806,Massachusetts,12522.0,4156.0,8366.0,Public,2-year
Butler Community College,-96.882987,37.806699,Kansas,8374.0,3518.0,4856.0,Public,2-year
Butler County Community College,-79.911433,40.829364,Pennsylvania,3305.0,1395.0,1910.0,Public,2-year
Butler University,-86.172167,39.8374,Indiana,5495.0,4955.0,540.0,Private not-for-profit,4-year or above
Butte College,-121.644831,39.649782,California,10872.0,4798.0,6074.0,Public,2-year
Cabarrus College of Health Sciences,-80.600824,35.440038,North Carolina,433.0,179.0,254.0,Private not-for-profit,4-year or above
Cabrillo College,-121.924797,36.989448,California,11321.0,4002.0,7319.0,Public,2-year
Cabrini University,-75.375263,40.056355,Pennsylvania,2285.0,1582.0,703.0,Private not-for-profit,4-year or above
Cairn University-Langhorne,-74.909509,40.165809,Pennsylvania,1143.0,811.0,332.0,Private not-for-profit,4-year or above
Caldwell Community College and Technical Institute,-81.484148,35.85460399999999,North Carolina,3581.0,1284.0,2297.0,Public,2-year
Caldwell University,-74.272571,40.832753,New Jersey,2189.0,1664.0,525.0,Private not-for-profit,4-year or above
California Aeronautical University,-119.049264,35.434905,California,306.0,306.0,0.0,Private for-profit,4-year or above
California Baptist University,-117.425619,33.929321,California,10486.0,8360.0,2126.0,Private not-for-profit,4-year or above
California Career College,-118.601794,34.197565999999995,California,147.0,133.0,14.0,Private for-profit,2-year
California Christian College,-119.711123,36.749366,California,13.0,6.0,7.0,Private not-for-profit,4-year or above
California College of the Arts,-122.399451,37.767485,California,1805.0,1710.0,95.0,Private not-for-profit,4-year or above
California College San Diego,-117.166966,32.835221000000004,California,761.0,761.0,0.0,Private not-for-profit,4-year or above
California College San Diego,-117.160658,33.138303,California,300.0,300.0,0.0,Private not-for-profit,4-year or above
California Institute of Arts & Technology,-117.134199,32.770776,California,530.0,491.0,39.0,Private for-profit,2-year
California Institute of Integral Studies,-122.416102,37.774924,California,1452.0,1128.0,324.0,Private not-for-profit,4-year or above
California Institute of Technology,-118.125878,34.137349,California,2233.0,2233.0,0.0,Private not-for-profit,4-year or above
California Institute of the Arts,-118.566837,34.39327,California,1506.0,1487.0,19.0,Private not-for-profit,4-year or above
California Intercontinental University,-117.850961,33.696413,California,505.0,22.0,483.0,Private for-profit,4-year or above
California Jazz Conservatory,-122.268878,37.871235,California,54.0,31.0,23.0,Private not-for-profit,4-year or above
California Lutheran University,-118.878924,34.224566,California,4383.0,3961.0,422.0,Private not-for-profit,4-year or above
California Miramar University,-117.11851,32.77942,California,236.0,234.0,2.0,Private for-profit,4-year or above
California Polytechnic State University-San Luis Obispo,-120.657311,35.299513,California,22013.0,20996.0,1017.0,Public,4-year or above
California State Polytechnic University-Pomona,-117.821476,34.057912,California,26598.0,22626.0,3972.0,Public,4-year or above
California State University Maritime Academy,-122.231551,38.069061,California,1046.0,975.0,71.0,Public,4-year or above
California State University-Bakersfield,-119.104711,35.350005,California,10816.0,8914.0,1902.0,Public,4-year or above
California State University-Channel Islands,-119.04356,34.162949,California,7488.0,6160.0,1328.0,Public,4-year or above
California State University-Chico,-121.844859,39.729712,California,17578.0,16001.0,1577.0,Public,4-year or above
California State University-Dominguez Hills,-118.255917,33.864766,California,16732.0,12183.0,4549.0,Public,4-year or above
California State University-East Bay,-122.054135,37.657694,California,15628.0,11886.0,3742.0,Public,4-year or above
California State University-Fresno,-119.744569,36.811154,California,25137.0,21444.0,3693.0,Public,4-year or above
California State University-Fullerton,-117.885446,33.881506,California,40280.0,30332.0,9948.0,Public,4-year or above
California State University-Long Beach,-118.11204,33.782818,California,37466.0,31079.0,6387.0,Public,4-year or above
California State University-Los Angeles,-118.168965,34.066927,California,28036.0,23097.0,4939.0,Public,4-year or above
California State University-Monterey Bay,-121.796178,36.652397,California,7540.0,6457.0,1083.0,Public,4-year or above
California State University-Northridge,-118.529319,34.240126000000004,California,40212.0,31524.0,8688.0,Public,4-year or above
California State University-Sacramento,-121.423549,38.559415,California,31902.0,25467.0,6435.0,Public,4-year or above
California State University-San Bernardino,-117.323801,34.182621999999995,California,20238.0,17175.0,3063.0,Public,4-year or above
California State University-San Marcos,-117.159013,33.130569,California,15972.0,12656.0,3316.0,Public,4-year or above
California State University-Stanislaus,-120.852511,37.52577,California,10577.0,8737.0,1840.0,Public,4-year or above
California University of Pennsylvania,-79.88679,40.064964,Pennsylvania,7310.0,4999.0,2311.0,Public,4-year or above
Calumet College of Saint Joseph,-87.494123,41.671008,Indiana,773.0,331.0,442.0,Private not-for-profit,4-year or above
Calvary University,-94.547927,38.839578,Missouri,346.0,211.0,135.0,Private not-for-profit,4-year or above
Calvin College,-85.587548,42.929916,Michigan,3732.0,3476.0,256.0,Private not-for-profit,4-year or above
Cambridge College,-71.07264599999998,42.381091,Massachusetts,2234.0,874.0,1360.0,Private not-for-profit,4-year or above
Cambridge College of Healthcare & Technology,-80.123788,26.438379,Florida,463.0,336.0,127.0,Private for-profit,2-year
Cambridge Institute of Allied Health & Technology,-81.375722,28.66306,Florida,235.0,235.0,0.0,Private for-profit,2-year
Camden County College,-75.038381,39.784874,New Jersey,9675.0,4271.0,5404.0,Public,2-year
Cameron University,-98.434163,34.606487,Oklahoma,4290.0,2853.0,1437.0,Public,4-year or above
Campbell University,-78.738238,35.409149,North Carolina,6448.0,5457.0,991.0,Private not-for-profit,4-year or above
Campbellsville University,-85.348943,37.343342,Kentucky,11470.0,9439.0,2031.0,Private not-for-profit,4-year or above
Canada College,-122.265398,37.44877,California,5987.0,999.0,4988.0,Public,2-year
Canisius College,-78.852577,42.925206,New York,3244.0,2640.0,604.0,Private not-for-profit,4-year or above
Cankdeska Cikana Community College,-98.990801,47.978122,North Dakota,178.0,78.0,100.0,Public,2-year
Cape Cod Community College,-70.337334,41.691911,Massachusetts,2996.0,887.0,2109.0,Public,2-year
Cape Fear Community College,-77.948306,34.240624,North Carolina,8378.0,3552.0,4826.0,Public,2-year
Capella University,-93.268796,44.976286,Minnesota,37171.0,3209.0,33962.0,Private for-profit,4-year or above
Capital Community College,-72.67273399999998,41.768397,Connecticut,3290.0,654.0,2636.0,Public,2-year
Capital University,-82.937867,39.954875,Ohio,3213.0,2799.0,414.0,Private not-for-profit,4-year or above
Capitol Technology University,-76.85023100000002,39.046673,Maryland,743.0,509.0,234.0,Private not-for-profit,4-year or above
Cardinal Stritch University,-87.90904499999998,43.139752,Wisconsin,2148.0,983.0,1165.0,Private not-for-profit,4-year or above
Career Care Institute,-118.15638,34.678236,California,531.0,531.0,0.0,Private for-profit,2-year
Career College of Northern Nevada,-119.71941499999998,39.540865,Nevada,359.0,359.0,0.0,Private for-profit,2-year
Career Networks Institute,-117.860347,33.776152,California,338.0,337.0,1.0,Private for-profit,4-year or above
Career Quest Learning Center-Bay City Branch,-83.896598,43.626928,Michigan,65.0,65.0,0.0,Private for-profit,2-year
Career Quest Learning Center-Mt. Pleasant,-84.768341,43.580687,Michigan,60.0,60.0,0.0,Private for-profit,2-year
Career Quest Learning Centers-Jackson,-84.402897,42.245222,Michigan,111.0,111.0,0.0,Private for-profit,2-year
Career Quest Learning Centers-Lansing,-84.53728000000002,42.699106,Michigan,167.0,167.0,0.0,Private for-profit,2-year
Career Technical Institute,-77.032461,38.904,District of Columbia,348.0,348.0,0.0,Private for-profit,2-year
Careers Unlimited,-111.731006,40.275775,Utah,179.0,179.0,0.0,Private for-profit,4-year or above
Caris College,-85.710165,38.326417,Indiana,66.0,66.0,0.0,Private for-profit,2-year
Carl Albert State College,-94.633986,35.039173,Oklahoma,1900.0,1072.0,828.0,Public,2-year
Carl Sandburg College,-90.408203,40.98128,Illinois,1860.0,832.0,1028.0,Public,2-year
Carleton College,-93.154666,44.462318,Minnesota,2097.0,2077.0,20.0,Private not-for-profit,4-year or above
Carlos Albizu University-Miami,-80.35631500000002,25.794178,Florida,746.0,574.0,172.0,Private not-for-profit,4-year or above
Carlow University,-79.963448,40.439293,Pennsylvania,2076.0,1246.0,830.0,Private not-for-profit,4-year or above
Carnegie Mellon University,-79.94199300000002,40.44357,Pennsylvania,14029.0,13160.0,869.0,Private not-for-profit,4-year or above
Carolina Christian College,-80.256252,36.146168,North Carolina,70.0,70.0,0.0,Private not-for-profit,4-year or above
Carolina College of Biblical Studies,-78.939514,35.05141,North Carolina,182.0,122.0,60.0,Private not-for-profit,4-year or above
Carolinas College of Health Sciences,-80.838535,35.20029500000001,North Carolina,467.0,65.0,402.0,Public,4-year or above
Carrington College-Albuquerque,-106.633361,35.110048,New Mexico,351.0,309.0,42.0,Private for-profit,2-year
Carrington College-Boise,-116.260675,43.615295,Idaho,428.0,395.0,33.0,Private for-profit,2-year
Carrington College-Citrus Heights,-121.29421,38.679983,California,248.0,212.0,36.0,Private for-profit,2-year
Carrington College-Las Vegas,-115.118231,36.08486,Nevada,243.0,198.0,45.0,Private for-profit,2-year
Carrington College-Mesa,-111.853218,33.39248,Arizona,541.0,441.0,100.0,Private for-profit,2-year
Carrington College-Mesquite,-96.625985,32.815899,Texas,40.0,35.0,5.0,Private for-profit,2-year
Carrington College-Phoenix East,-112.10442,33.566262,Arizona,312.0,292.0,20.0,Private for-profit,2-year
Carrington College-Phoenix North,-112.116105,33.561689,Arizona,475.0,401.0,74.0,Private for-profit,2-year
Carrington College-Pleasant Hill,-122.072153,37.962649,California,362.0,316.0,46.0,Private for-profit,2-year
Carrington College-Pomona,-117.803875,34.06302,California,168.0,121.0,47.0,Private for-profit,2-year
Carrington College-Reno,-119.786947,39.463165,Nevada,401.0,357.0,44.0,Private for-profit,2-year
Carrington College-Sacramento,-121.371331,38.556151,California,1214.0,1038.0,176.0,Private for-profit,2-year
Carrington College-San Jose,-121.77706200000002,37.248411,California,629.0,556.0,73.0,Private for-profit,2-year
Carrington College-San Leandro,-122.12567,37.699627,California,251.0,189.0,62.0,Private for-profit,2-year
Carrington College-Spokane,-117.268126,47.675918,Washington,337.0,290.0,47.0,Private for-profit,2-year
Carrington College-Stockton,-121.323199,37.998992,California,367.0,283.0,84.0,Private for-profit,2-year
Carrington College-Tucson,-110.983056,32.224391,Arizona,227.0,185.0,42.0,Private for-profit,2-year
Carroll College,-112.040285,46.600771,Montana,1335.0,1201.0,134.0,Private not-for-profit,4-year or above
Carroll Community College,-76.991113,39.531805,Maryland,3050.0,982.0,2068.0,Public,2-year
Carroll University,-88.228114,43.004527,Wisconsin,3352.0,2999.0,353.0,Private not-for-profit,4-year or above
Carson-Newman University,-83.491709,36.122934,Tennessee,2560.0,1839.0,721.0,Private not-for-profit,4-year or above
Carteret Community College,-76.755538,34.723681,North Carolina,1390.0,482.0,908.0,Public,2-year
Carthage College,-87.820924,42.622969,Wisconsin,2872.0,2696.0,176.0,Private not-for-profit,4-year or above
Carver Career Center,-81.562988,38.28970800000001,West Virginia,170.0,170.0,0.0,Public,2-year
Casa Loma College-Van Nuys,-118.457781,34.192829,California,175.0,175.0,0.0,Private not-for-profit,2-year
Cascadia College,-122.191572,47.760915,Washington,3396.0,1644.0,1752.0,Public,4-year or above
Case Western Reserve University,-81.609596,41.507419,Ohio,11890.0,10662.0,1228.0,Private not-for-profit,4-year or above
Casper College,-106.326712,42.832788,Wyoming,3650.0,1505.0,2145.0,Public,2-year
Castleton University,-73.180842,43.608397,Vermont,2196.0,1703.0,493.0,Public,4-year or above
Catawba College,-80.48275100000002,35.691443,North Carolina,1294.0,1229.0,65.0,Private not-for-profit,4-year or above
Catawba Valley Community College,-81.28792,35.699732,North Carolina,4610.0,1684.0,2926.0,Public,2-year
Catholic Distance University,-77.860321,39.28763,West Virginia,203.0,11.0,192.0,Private not-for-profit,4-year or above
Catholic University of America,-76.99790899999998,38.933651,District of Columbia,5956.0,4257.0,1699.0,Private not-for-profit,4-year or above
Cayuga County Community College,-76.542867,42.943726,New York,3775.0,1420.0,2355.0,Public,2-year
Cazenovia College,-75.85488199999998,42.932489,New York,870.0,708.0,162.0,Private not-for-profit,4-year or above
CBD College,-118.306221,34.06231,California,628.0,628.0,0.0,Private not-for-profit,2-year
Cecil College,-75.955949,39.642225,Maryland,2391.0,782.0,1609.0,Public,2-year
Cedar Crest College,-75.519221,40.586318,Pennsylvania,1596.0,1018.0,578.0,Private not-for-profit,4-year or above
Cedar Valley College,-96.763413,32.62568,Texas,8030.0,1395.0,6635.0,Public,2-year
Cedarville University,-83.81469200000002,39.749237,Ohio,4150.0,3619.0,531.0,Private not-for-profit,4-year or above
Centenary College of Louisiana,-93.730834,32.483335,Louisiana,585.0,549.0,36.0,Private not-for-profit,4-year or above
Centenary University,-74.83364399999998,40.84764000000001,New Jersey,1802.0,1118.0,684.0,Private not-for-profit,4-year or above
Center for Advanced Legal Studies,-95.558831,29.753020000000006,Texas,211.0,211.0,0.0,Private for-profit,2-year
CenterPoint Massage and Shiatsu Therapy School and Clinic,-93.347429,44.939769,Minnesota,90.0,55.0,35.0,Private for-profit,2-year
Centra College of Nursing,-79.17410100000002,37.4051,Virginia,369.0,59.0,310.0,Private not-for-profit,4-year or above
Central Alabama Community College,-85.945266,32.92478,Alabama,1681.0,742.0,939.0,Public,2-year
Central Arizona College,-111.652501,32.957092,Arizona,5044.0,1714.0,3330.0,Public,2-year
Central Baptist College,-92.445021,35.083838,Arkansas,732.0,576.0,156.0,Private not-for-profit,4-year or above
Central Carolina Community College,-79.143553,35.47186400000001,North Carolina,5190.0,1753.0,3437.0,Public,2-year
Central Carolina Technical College,-80.37101,33.933342,South Carolina,3550.0,1305.0,2245.0,Public,2-year
Central Christian College of Kansas,-97.668597,38.357978,Kansas,726.0,642.0,84.0,Private not-for-profit,4-year or above
Central Christian College of the Bible,-92.427259,39.395963,Missouri,211.0,162.0,49.0,Private not-for-profit,4-year or above
Central Coast College,-121.655643,36.669595,California,245.0,159.0,86.0,Private for-profit,2-year
Central College,-92.922199,41.401539,Iowa,1117.0,1077.0,40.0,Private not-for-profit,4-year or above
Central Community College,-98.372549,40.889582,Nebraska,6354.0,1864.0,4490.0,Public,2-year
Central Connecticut State University,-72.765991,41.69250200000001,Connecticut,11822.0,8167.0,3655.0,Public,4-year or above
Central Georgia Technical College,-83.66765,32.545341,Georgia,8219.0,2185.0,6034.0,Public,2-year
Central Lakes College-Brainerd,-94.214266,46.345863,Minnesota,4029.0,1661.0,2368.0,Public,2-year
Central Louisiana Technical Community College,-92.444506,31.260003,Louisiana,2688.0,1168.0,1520.0,Public,2-year
Central Maine Community College,-70.23549799999999,44.134346,Maine,3068.0,1158.0,1910.0,Public,2-year
Central Methodist University-College of Graduate and Extended Studies,-92.685253,39.150497,Missouri,3863.0,1145.0,2718.0,Private not-for-profit,4-year or above
Central Methodist University-College of Liberal Arts and Sciences,-92.685253,39.150497,Missouri,1148.0,1131.0,17.0,Private not-for-profit,4-year or above
Central Michigan University,-84.77525,43.591203,Michigan,21622.0,15966.0,5656.0,Public,4-year or above
Central New Mexico Community College,-106.628861,35.071878000000005,New Mexico,23553.0,6345.0,17208.0,Public,2-year
Central Ohio Technical College,-82.447441,40.069314,Ohio,3442.0,735.0,2707.0,Public,2-year
Central Oregon Community College,-121.348585,44.071401,Oregon,4872.0,2302.0,2570.0,Public,2-year
Central Penn College,-76.934461,40.3049,Pennsylvania,1047.0,248.0,799.0,Private for-profit,4-year or above
Central Pennsylvania Institute of Science and Technology,-77.74042299999998,40.882223,Pennsylvania,218.0,161.0,57.0,Public,2-year
Central Piedmont Community College,-80.829796,35.217774,North Carolina,18824.0,6781.0,12043.0,Public,2-year
Central State University,-83.880186,39.715787,Ohio,2099.0,2029.0,70.0,Public,4-year or above
Central Texas College,-97.810827,31.120516,Texas,16073.0,4355.0,11718.0,Public,2-year
Central Virginia Community College,-79.184238,37.358809,Virginia,4047.0,1328.0,2719.0,Public,2-year
Central Washington University,-120.538368,47.002687,Washington,12342.0,10568.0,1774.0,Public,4-year or above
Central Wyoming College,-108.426738,43.030556,Wyoming,1974.0,622.0,1352.0,Public,2-year
Central Yeshiva Beth Joseph,-73.959386,40.615411,New York,20.0,20.0,0.0,Private not-for-profit,4-year or above
Central Yeshiva Tomchei Tmimim Lubavitz,-73.938778,40.669694,New York,536.0,536.0,0.0,Private not-for-profit,4-year or above
Centralia College,-122.960591,46.715017,Washington,3167.0,1649.0,1518.0,Public,4-year or above
Centre College,-84.779392,37.645709,Kentucky,1434.0,1433.0,1.0,Private not-for-profit,4-year or above
Centura College-Chesapeake,-76.227712,36.765954,Virginia,157.0,130.0,27.0,Private for-profit,4-year or above
Centura College-Columbia,-80.944897,34.074693,South Carolina,60.0,47.0,13.0,Private for-profit,2-year
Centura College-Newport News,-76.517328,37.140484,Virginia,126.0,103.0,23.0,Private for-profit,2-year
Centura College-Norfolk,-76.232569,36.908434,Virginia,166.0,131.0,35.0,Private for-profit,2-year
Centura College-Richmond Main,-77.543157,37.499343,Virginia,33.0,26.0,7.0,Private for-profit,2-year
Centura College-Virginia Beach,-76.064499,36.837648,Virginia,102.0,70.0,32.0,Private for-profit,4-year or above
Century College,-92.982105,45.041823,Minnesota,8891.0,3419.0,5472.0,Public,2-year
Cerritos College,-118.097337,33.886874,California,21745.0,6566.0,15179.0,Public,2-year
Cerro Coso Community College,-117.66767,35.567525,California,6074.0,944.0,5130.0,Public,2-year
Chabot College,-122.105636,37.64245800000001,California,13833.0,3837.0,9996.0,Public,2-year
Chadron State College,-103.001615,42.8199,Nebraska,2448.0,1598.0,850.0,Public,4-year or above
Chaffey College,-117.573932,34.147663,California,22969.0,6370.0,16599.0,Public,2-year
Chamberlain University-Arizona,-112.104421,33.56573,Arizona,692.0,271.0,421.0,Private for-profit,4-year or above
Chamberlain University-California,-121.278258,38.596193,California,226.0,135.0,91.0,Private for-profit,4-year or above
Chamberlain University-Florida,-81.586421,30.243517,Florida,946.0,274.0,672.0,Private for-profit,4-year or above
Chamberlain University-Georgia,-84.351949,33.911943,Georgia,1068.0,274.0,794.0,Private for-profit,4-year or above
Chamberlain University-Illinois,-88.038558,41.949727,Illinois,27629.0,3270.0,24359.0,Private for-profit,4-year or above
Chamberlain University-Indiana,-86.11106099999998,39.91916,Indiana,210.0,96.0,114.0,Private for-profit,4-year or above
Chamberlain University-Louisiana,-90.152655,29.962307,Louisiana,75.0,55.0,20.0,Private for-profit,4-year or above
Chamberlain University-Michigan,-83.15051600000002,42.556474,Michigan,299.0,100.0,199.0,Private for-profit,4-year or above
Chamberlain University-Missouri,-90.436283,38.701907,Missouri,535.0,141.0,394.0,Private for-profit,4-year or above
Chamberlain University-Nevada,-115.313525,36.185176,Nevada,310.0,155.0,155.0,Private for-profit,4-year or above
Chamberlain University-New Jersey,-74.438877,40.465934,New Jersey,677.0,293.0,384.0,Private for-profit,4-year or above
Chamberlain University-North Carolina,-80.93197099999998,35.13766,North Carolina,179.0,83.0,96.0,Private for-profit,4-year or above
Chamberlain University-Ohio,-82.940493,39.940449,Ohio,557.0,237.0,320.0,Private for-profit,4-year or above
Chamberlain University-Texas,-95.560414,29.838386,Texas,823.0,205.0,618.0,Private for-profit,4-year or above
Chamberlain University-Virginia,-77.050273,38.852326,Virginia,506.0,176.0,330.0,Private for-profit,4-year or above
Chaminade University of Honolulu,-157.807851,21.28995,Hawaii,2150.0,1715.0,435.0,Private not-for-profit,4-year or above
Champion Christian College,-93.065945,34.499589,Arkansas,87.0,81.0,6.0,Private not-for-profit,4-year or above
Champlain College,-73.20274599999998,44.473287,Vermont,4531.0,2575.0,1956.0,Private not-for-profit,4-year or above
Chandler-Gilbert Community College,-111.795922,33.293896999999994,Arizona,14728.0,4114.0,10614.0,Public,2-year
Chapman University,-117.852518,33.79302,California,9608.0,8598.0,1010.0,Private not-for-profit,4-year or above
Charles R Drew University of Medicine and Science,-118.242791,33.925658,California,596.0,521.0,75.0,Private not-for-profit,4-year or above
Charleston Southern University,-80.072587,32.983047,South Carolina,3414.0,2811.0,603.0,Private not-for-profit,4-year or above
Charlotte Christian College and Theological Seminary,-80.802527,35.242999,North Carolina,80.0,40.0,40.0,Private not-for-profit,4-year or above
Charter College,-122.494766,45.617798,Washington,2853.0,2853.0,0.0,Private for-profit,4-year or above
Charter Oak State College,-72.767972,41.688246,Connecticut,1641.0,303.0,1338.0,Public,4-year or above
Chatfield College,-83.887153,39.210369,Ohio,247.0,102.0,145.0,Private not-for-profit,2-year
Chatham University,-79.92608299999998,40.448432,Pennsylvania,2336.0,1790.0,546.0,Private not-for-profit,4-year or above
Chattahoochee Technical College,-84.553722,33.929092,Georgia,10483.0,2832.0,7651.0,Public,2-year
Chattahoochee Valley Community College,-85.031485,32.42391,Alabama,1568.0,864.0,704.0,Public,2-year
Chattanooga College Medical Dental and Technical Careers,-85.23813100000002,35.133140000000004,Tennessee,283.0,283.0,0.0,Private for-profit,2-year
Chattanooga State Community College,-85.23738900000002,35.100202,Tennessee,8241.0,4072.0,4169.0,Public,2-year
Chemeketa Community College,-122.978076,44.978655,Oregon,10151.0,4659.0,5492.0,Public,2-year
Chesapeake College,-76.083668,38.952193,Maryland,2081.0,579.0,1502.0,Public,2-year
Chester Career College,-77.374112,37.348882,Virginia,171.0,171.0,0.0,Private for-profit,2-year
Chestnut Hill College,-75.22874200000003,40.08678,Pennsylvania,1794.0,1248.0,546.0,Private not-for-profit,4-year or above
Cheyney University of Pennsylvania,-75.529262,39.932274,Pennsylvania,466.0,433.0,33.0,Public,4-year or above
CHI Health School of Radiologic Technology,-96.020431,41.32206,Nebraska,15.0,15.0,0.0,Private not-for-profit,2-year
Chicago State University,-87.60938399999998,41.718446,Illinois,2964.0,1810.0,1154.0,Public,4-year or above
Chief Dull Knife College,-106.664593,45.625568,Montana,196.0,99.0,97.0,Public,2-year
Chipola College,-85.23139,30.789228,Florida,2081.0,876.0,1205.0,Public,4-year or above
Chippewa Valley Technical College,-91.505675,44.794867,Wisconsin,7645.0,2123.0,5522.0,Public,2-year
Chowan University,-77.099141,36.436258,North Carolina,1399.0,1356.0,43.0,Private not-for-profit,4-year or above
Christian Brothers University,-89.983241,35.127437,Tennessee,2034.0,1525.0,509.0,Private not-for-profit,4-year or above
Christopher Newport University,-76.494364,37.062495,Virginia,4957.0,4869.0,88.0,Public,4-year or above
Cincinnati Christian University,-84.55408,39.114169,Ohio,776.0,631.0,145.0,Private not-for-profit,4-year or above
Cincinnati College of Mortuary Science,-84.505604,39.206578,Ohio,78.0,78.0,0.0,Private not-for-profit,4-year or above
Cincinnati State Technical and Community College,-84.536936,39.149915,Ohio,8205.0,2228.0,5977.0,Public,2-year
Cisco College,-98.985206,32.401132000000004,Texas,3374.0,1466.0,1908.0,Public,2-year
Citadel Military College of South Carolina,-79.958775,32.797183000000004,South Carolina,3763.0,2830.0,933.0,Public,4-year or above
Citrus College,-117.885266,34.135487,California,13136.0,5416.0,7720.0,Public,2-year
City College of San Francisco,-122.451155,37.725953,California,27008.0,8088.0,18920.0,Public,2-year
City College-Altamonte Springs,-81.40221899999997,28.663604,Florida,168.0,127.0,41.0,Private not-for-profit,2-year
City College-Fort Lauderdale,-80.1705,26.187467,Florida,303.0,210.0,93.0,Private not-for-profit,4-year or above
City College-Gainesville,-82.417302,29.654852,Florida,190.0,141.0,49.0,Private not-for-profit,4-year or above
City College-Hollywood,-80.22004,26.025173,Florida,243.0,176.0,67.0,Private not-for-profit,2-year
City College-Miami,-80.316377,25.683673,Florida,173.0,145.0,28.0,Private not-for-profit,4-year or above
City Colleges of Chicago-Harold Washington College,-87.62659599999998,41.886067,Illinois,8643.0,4610.0,4033.0,Public,2-year
City Colleges of Chicago-Harry S Truman College,-87.65910699999998,41.964502,Illinois,7673.0,2064.0,5609.0,Public,2-year
City Colleges of Chicago-Kennedy-King College,-87.643425,41.780253,Illinois,3136.0,1267.0,1869.0,Public,2-year
City Colleges of Chicago-Malcolm X College,-87.675321,41.878092,Illinois,7104.0,2839.0,4265.0,Public,2-year
City Colleges of Chicago-Olive-Harvey College,-87.589249,41.709997,Illinois,2663.0,874.0,1789.0,Public,2-year
City Colleges of Chicago-Richard J Daley College,-87.72398100000002,41.755955,Illinois,6942.0,2761.0,4181.0,Public,2-year
City Colleges of Chicago-Wilbur Wright College,-87.787868,41.958774,Illinois,9777.0,3638.0,6139.0,Public,2-year
City University of Seattle,-122.344594,47.617381,Washington,2113.0,363.0,1750.0,Private not-for-profit,4-year or above
City Vision University,-94.571053,39.070383,Missouri,137.0,71.0,66.0,Private not-for-profit,4-year or above
Clackamas Community College,-122.574272,45.323185,Oregon,6064.0,2368.0,3696.0,Public,2-year
Claflin University,-80.85431899999998,33.498444,South Carolina,2172.0,2055.0,117.0,Private not-for-profit,4-year or above
Claremont McKenna College,-117.711188,34.102154,California,1327.0,1324.0,3.0,Private not-for-profit,4-year or above
Clarendon College,-100.902421,34.944558,Texas,1844.0,611.0,1233.0,Public,2-year
Clarion University of Pennsylvania,-79.377501,41.207805,Pennsylvania,4864.0,3409.0,1455.0,Public,4-year or above
Clark Atlanta University,-84.412584,33.74762800000001,Georgia,3911.0,3619.0,292.0,Private not-for-profit,4-year or above
Clark College,-122.651257,45.636133,Washington,9878.0,4907.0,4971.0,Public,4-year or above
Clark State Community College,-83.799788,39.896411,Ohio,5704.0,1242.0,4462.0,Public,2-year
Clark University,-71.823356,42.249987,Massachusetts,3122.0,2944.0,178.0,Private not-for-profit,4-year or above
Clarke University,-90.690487,42.509475,Iowa,1004.0,878.0,126.0,Private not-for-profit,4-year or above
Clarks Summit University,-75.685472,41.495062,Pennsylvania,768.0,475.0,293.0,Private not-for-profit,4-year or above
Clarkson College,-95.974847,41.259165,Nebraska,1162.0,375.0,787.0,Private not-for-profit,4-year or above
Clarkson University,-74.999359,44.662716,New York,4274.0,3651.0,623.0,Private not-for-profit,4-year or above
Clatsop Community College,-123.823339,46.183107,Oregon,815.0,334.0,481.0,Public,2-year
Clayton  State University,-84.328174,33.594079,Georgia,7038.0,4013.0,3025.0,Public,4-year or above
Clear Creek Baptist Bible College,-83.72770200000002,36.725236,Kentucky,131.0,72.0,59.0,Private not-for-profit,4-year or above
Cleary University,-83.879987,42.586638,Michigan,594.0,456.0,138.0,Private not-for-profit,4-year or above
Clemson University,-82.835114,34.679381,South Carolina,24951.0,21940.0,3011.0,Public,4-year or above
Cleveland Community College,-81.492856,35.279833,North Carolina,2551.0,961.0,1590.0,Public,2-year
Cleveland Institute of Art,-81.602416,41.510435,Ohio,670.0,649.0,21.0,Private not-for-profit,4-year or above
Cleveland Institute of Music,-81.608878,41.512444,Ohio,402.0,396.0,6.0,Private not-for-profit,4-year or above
Cleveland State Community College,-84.879284,35.20010300000001,Tennessee,3264.0,1656.0,1608.0,Public,2-year
Cleveland State University,-81.674355,41.502281,Ohio,16069.0,11268.0,4801.0,Public,4-year or above
Cleveland University-Kansas City,-94.679076,38.932019,Kansas,549.0,522.0,27.0,Private not-for-profit,4-year or above
Clinton College,-81.04346899999999,34.913721,South Carolina,193.0,193.0,0.0,Private not-for-profit,4-year or above
Clinton Community College,-73.439739,44.64841,New York,1353.0,601.0,752.0,Public,2-year
Cloud County Community College,-97.664147,39.554199,Kansas,1839.0,789.0,1050.0,Public,2-year
Clover Park Technical College,-122.497873,47.176084,Washington,3905.0,2290.0,1615.0,Public,4-year or above
Clovis Community College,-119.731261,36.88686,California,7765.0,2348.0,5417.0,Public,2-year
Clovis Community College,-103.165886,34.402483000000004,New Mexico,3107.0,772.0,2335.0,Public,2-year
Coahoma Community College,-90.568469,34.254417,Mississippi,1895.0,1361.0,534.0,Public,2-year
Coastal Alabama Community College,-87.778193,30.851343,Alabama,7419.0,3444.0,3975.0,Public,2-year
Coastal Bend College,-97.755896,28.435194,Texas,4614.0,1202.0,3412.0,Public,2-year
Coastal Carolina Community College,-77.384785,34.771687,North Carolina,3864.0,1877.0,1987.0,Public,2-year
Coastal Carolina University,-79.011767,33.794995,South Carolina,10641.0,9135.0,1506.0,Public,4-year or above
Coastal Pines Technical College,-82.3821,31.212781,Georgia,3467.0,703.0,2764.0,Public,2-year
Coastline Community College,-117.929143,33.715634,California,10977.0,1370.0,9607.0,Public,2-year
Cochise County Community College District,-110.246946,31.564597,Arizona,3670.0,1481.0,2189.0,Public,2-year
Cochran School of Nursing,-73.885705,40.969116,New York,107.0,26.0,81.0,Private not-for-profit,2-year
Coconino Community College,-111.645631,35.171328,Arizona,3719.0,1103.0,2616.0,Public,2-year
Coe College,-91.658192,41.988263,Iowa,1422.0,1392.0,30.0,Private not-for-profit,4-year or above
Coffeyville Community College,-95.621374,37.033814,Kansas,1898.0,1157.0,741.0,Public,2-year
Cogswell College,-121.94087,37.414049,California,599.0,411.0,188.0,Private for-profit,4-year or above
Coker College,-80.07041600000002,34.37696,South Carolina,1280.0,1145.0,135.0,Private not-for-profit,4-year or above
Colby College,-69.66337,44.564211,Maine,2000.0,2000.0,0.0,Private not-for-profit,4-year or above
Colby Community College,-101.052744,39.377601,Kansas,1412.0,641.0,771.0,Public,2-year
Colby-Sawyer College,-71.97580500000002,43.411663,New Hampshire,859.0,822.0,37.0,Private not-for-profit,4-year or above
Colgate University,-75.536346,42.819475,New York,2969.0,2944.0,25.0,Private not-for-profit,4-year or above
College for Creative Studies,-83.062352,42.361839,Michigan,1485.0,1195.0,290.0,Private not-for-profit,4-year or above
College of Alameda,-122.279303,37.781017,California,6389.0,1205.0,5184.0,Public,2-year
College of Biblical Studies-Houston,-95.506559,29.716676,Texas,376.0,41.0,335.0,Private not-for-profit,4-year or above
College of Business and Technology-Cutler Bay,-80.356565,25.590468,Florida,69.0,69.0,0.0,Private for-profit,2-year
College of Business and Technology-Hialeah,-80.302213,25.867003,Florida,182.0,182.0,0.0,Private for-profit,2-year
College of Business and Technology-Main Campus,-80.329161,25.769052,Florida,134.0,134.0,0.0,Private for-profit,2-year
College of Business and Technology-Miami Campus,-80.33742099999998,25.76859,Florida,,,,Private for-profit,4-year or above
College of Central Florida,-82.175692,29.166079,Florida,6820.0,3016.0,3804.0,Public,4-year or above
College of Charleston,-79.93979399999998,32.784225,South Carolina,10783.0,9358.0,1425.0,Public,4-year or above
College of Coastal Georgia,-81.485973,31.182745,Georgia,3546.0,2078.0,1468.0,Public,4-year or above
College of Court Reporting Inc,-87.066331,41.467574,Indiana,150.0,59.0,91.0,Private for-profit,2-year
College of DuPage,-88.071635,41.841577,Illinois,24900.0,7857.0,17043.0,Public,2-year
College of Eastern Idaho,-111.985519,43.486041,Idaho,1288.0,479.0,809.0,Public,2-year
College of Lake County,-88.012291,42.354164,Illinois,14193.0,4164.0,10029.0,Public,2-year
College of Marin,-122.549149,37.954897,California,5026.0,1345.0,3681.0,Public,2-year
College of Menominee Nation,-88.625628,44.859044,Wisconsin,237.0,91.0,146.0,Private not-for-profit,4-year or above
College of Mount Saint Vincent,-73.908887,40.913657,New York,1861.0,1606.0,255.0,Private not-for-profit,4-year or above
College of Our Lady of the Elms,-72.60154,42.141781,Massachusetts,1531.0,1112.0,419.0,Private not-for-profit,4-year or above
College of Saint Benedict,-94.319888,45.561792,Minnesota,1782.0,1764.0,18.0,Private not-for-profit,4-year or above
College of Saint Elizabeth,-74.438221,40.78182,New Jersey,1186.0,717.0,469.0,Private not-for-profit,4-year or above
College of Saint Mary,-96.021425,41.240028,Nebraska,1168.0,1037.0,131.0,Private not-for-profit,4-year or above
College of San Mateo,-122.334801,37.535698,California,8924.0,2363.0,6561.0,Public,2-year
College of Southern Idaho,-114.473901,42.579837,Idaho,6906.0,1937.0,4969.0,Public,2-year
College of Southern Maryland,-77.00924499999998,38.55895,Maryland,6882.0,2490.0,4392.0,Public,2-year
College of Southern Nevada,-115.233099,36.15811400000001,Nevada,34169.0,10068.0,24101.0,Public,4-year or above
College of St Joseph,-73.000848,43.600507,Vermont,227.0,151.0,76.0,Private not-for-profit,4-year or above
College of Staten Island CUNY,-74.14849,40.601831,New York,13247.0,9793.0,3454.0,Public,4-year or above
College of the Albemarle,-76.219765,36.324885,North Carolina,2557.0,999.0,1558.0,Public,2-year
College of the Atlantic,-68.221517,44.395258,Maine,337.0,322.0,15.0,Private not-for-profit,4-year or above
College of the Canyons,-118.568698,34.403993,California,20850.0,6075.0,14775.0,Public,2-year
College of the Desert,-116.388271,33.732108000000004,California,11412.0,4577.0,6835.0,Public,2-year
College of the Holy Cross,-71.808214,42.23752,Massachusetts,2939.0,2913.0,26.0,Private not-for-profit,4-year or above
College of the Mainland,-94.999602,29.39581,Texas,4673.0,1116.0,3557.0,Public,2-year
College of the Muscogee Nation,-95.936439,35.635288,Oklahoma,217.0,181.0,36.0,Public,2-year
College of the Ouachitas,-92.821416,34.378745,Arkansas,1257.0,338.0,919.0,Public,2-year
College of the Ozarks,-93.238174,36.616019,Missouri,1565.0,1533.0,32.0,Private not-for-profit,4-year or above
College of the Redwoods,-124.195293,40.698427,California,4572.0,1725.0,2847.0,Public,2-year
College of the Sequoias,-119.315182,36.323877,California,12557.0,5100.0,7457.0,Public,2-year
College of the Siskiyous,-122.38909,41.413005,California,1677.0,777.0,900.0,Public,2-year
College of Western Idaho,-116.507314,43.614106,Idaho,10277.0,2746.0,7531.0,Public,2-year
College of William and Mary,-76.708214,37.269489,Virginia,8817.0,7986.0,831.0,Public,4-year or above
CollegeAmerica-Colorado Springs,-104.758069,38.862312,Colorado,143.0,143.0,0.0,Private not-for-profit,4-year or above
CollegeAmerica-Denver,-104.941168,39.691571,Colorado,123.0,123.0,0.0,Private not-for-profit,2-year
CollegeAmerica-Flagstaff,-111.657673,35.194495,Arizona,62.0,62.0,0.0,Private not-for-profit,4-year or above
CollegeAmerica-Fort Collins,-105.080277,40.523124,Colorado,113.0,113.0,0.0,Private not-for-profit,4-year or above
CollegeAmerica-Phoenix,-112.117971,33.574684999999995,Arizona,488.0,488.0,0.0,Private not-for-profit,4-year or above
Collin County Community College District,-96.63894,33.162409999999994,Texas,33668.0,10662.0,23006.0,Public,2-year
Colorado Academy of Veterinary Technology,-104.790429,38.794277,Colorado,120.0,107.0,13.0,Private for-profit,2-year
Colorado Christian University,-105.09456000000002,39.71388,Colorado,7625.0,2256.0,5369.0,Private not-for-profit,4-year or above
Colorado College,-104.822697,38.84886,Colorado,2144.0,2106.0,38.0,Private not-for-profit,4-year or above
Colorado Mesa University,-108.553275,39.080643,Colorado,9492.0,7108.0,2384.0,Public,4-year or above
Colorado Mountain College,-107.324441,39.54636,Colorado,5688.0,1679.0,4009.0,Public,4-year or above
Colorado Northwestern Community College,-108.790048,40.081112,Colorado,1154.0,484.0,670.0,Public,2-year
Colorado School of Mines,-105.223364,39.751443,Colorado,6325.0,5801.0,524.0,Public,4-year or above
Colorado School of Trades,-105.104174,39.74181,Colorado,135.0,135.0,0.0,Private for-profit,2-year
Colorado State University-Fort Collins,-105.080732,40.574805,Colorado,33478.0,25601.0,7877.0,Public,4-year or above
Colorado State University-Global Campus,-104.898051,39.608848,Colorado,12476.0,2337.0,10139.0,Public,4-year or above
Colorado State University-Pueblo,-104.579033,38.30859,Colorado,6736.0,3526.0,3210.0,Public,4-year or above
Colorado Technical University-Colorado Springs,-104.833928,38.894265,Colorado,26184.0,18214.0,7970.0,Private for-profit,4-year or above
Columbia Basin College,-119.12103,46.25216,Washington,7034.0,3928.0,3106.0,Public,4-year or above
Columbia College,-77.249152,38.928425,Virginia,358.0,353.0,5.0,Private for-profit,2-year
Columbia College,-77.434496,38.838042,Virginia,144.0,141.0,3.0,Private for-profit,2-year
Columbia College,-92.326354,38.957388,Missouri,12080.0,4568.0,7512.0,Private not-for-profit,4-year or above
Columbia College,-120.388385,38.030367,California,2496.0,699.0,1797.0,Public,2-year
Columbia College,-81.029967,34.045581,South Carolina,1276.0,870.0,406.0,Private not-for-profit,4-year or above
Columbia College Chicago,-87.624667,41.874261,Illinois,6825.0,6279.0,546.0,Private not-for-profit,4-year or above
Columbia College Hollywood,-118.538793,34.17972,California,540.0,481.0,59.0,Private not-for-profit,4-year or above
Columbia College of Nursing,-87.918283,43.097318,Wisconsin,122.0,108.0,14.0,Private not-for-profit,4-year or above
Columbia Gorge Community College,-121.190197,45.590724,Oregon,803.0,321.0,482.0,Public,2-year
Columbia International University,-81.07443,34.075509999999994,South Carolina,1048.0,712.0,336.0,Private not-for-profit,4-year or above
Columbia Southern University,-87.653162,30.329288,Alabama,21104.0,14256.0,6848.0,Private for-profit,4-year or above
Columbia State Community College,-87.101917,35.616757,Tennessee,6221.0,3110.0,3111.0,Public,2-year
Columbia University in the City of New York,-73.961885,40.808286,New York,31077.0,26072.0,5005.0,Private not-for-profit,4-year or above
Columbia-Greene Community College,-73.818113,42.217613,New York,1584.0,622.0,962.0,Public,2-year
Columbus College of Art and Design,-82.989479,39.966074,Ohio,1094.0,1069.0,25.0,Private not-for-profit,4-year or above
Columbus State Community College,-82.98765999999998,39.96887,Ohio,27343.0,6825.0,20518.0,Public,2-year
Columbus State University,-84.94106,32.50096,Georgia,8076.0,5152.0,2924.0,Public,4-year or above
Columbus Technical College,-84.978551,32.508076,Georgia,3301.0,1073.0,2228.0,Public,2-year
Commonwealth Institute of Funeral Service,-95.430153,29.989545,Texas,205.0,152.0,53.0,Private not-for-profit,2-year
Commonwealth Technical Institute,-78.947004,40.301691,Pennsylvania,175.0,174.0,1.0,Private not-for-profit,2-year
Community Care College,-95.905178,36.101615,Oklahoma,578.0,578.0,0.0,Private not-for-profit,2-year
Community Christian College,-117.139951,34.082673,California,75.0,24.0,51.0,Private not-for-profit,2-year
Community College of Allegheny County,-80.01845300000002,40.450908,Pennsylvania,16086.0,5354.0,10732.0,Public,2-year
Community College of Aurora,-104.802673,39.71788,Colorado,7981.0,1439.0,6542.0,Public,2-year
Community College of Baltimore County,-76.48210999999998,39.352647,Maryland,18830.0,5081.0,13749.0,Public,2-year
Community College of Beaver County,-80.305876,40.655601,Pennsylvania,2254.0,820.0,1434.0,Public,2-year
Community College of Denver,-105.001044,39.741413,Colorado,7887.0,2342.0,5545.0,Public,4-year or above
Community College of Philadelphia,-75.165604,39.96245800000001,Pennsylvania,16672.0,4917.0,11755.0,Public,2-year
Community College of Rhode Island,-71.481509,41.712817,Rhode Island,14539.0,5756.0,8783.0,Public,2-year
Community College of Vermont,-72.573774,44.280811,Vermont,5378.0,768.0,4610.0,Public,2-year
Compass College of Cinematic Arts,-85.66706500000002,42.961875,Michigan,129.0,113.0,16.0,Private not-for-profit,4-year or above
Compton College,-118.209463,33.878226,California,7046.0,1328.0,5718.0,Public,2-year
Conception Seminary College,-94.682831,40.24044,Missouri,64.0,60.0,4.0,Private not-for-profit,4-year or above
Concord University,-81.00669599999998,37.423723,West Virginia,2040.0,1684.0,356.0,Public,4-year or above
Concorde Career College-Aurora,-104.867089,39.718699,Colorado,778.0,778.0,0.0,Private for-profit,2-year
Concorde Career College-Dallas,-96.741711,32.91856,Texas,701.0,701.0,0.0,Private for-profit,2-year
Concorde Career College-Garden Grove,-117.938395,33.774741,California,609.0,609.0,0.0,Private for-profit,2-year
Concorde Career College-Grand Prairie,-97.05498,32.675369,Texas,835.0,835.0,0.0,Private for-profit,2-year
Concorde Career College-Kansas City,-94.589819,39.06799,Missouri,606.0,606.0,0.0,Private for-profit,4-year or above
Concorde Career College-Memphis,-89.891723,35.112891999999995,Tennessee,1394.0,1394.0,0.0,Private for-profit,2-year
Concorde Career College-North Hollywood,-118.403627,34.186407,California,617.0,617.0,0.0,Private for-profit,2-year
Concorde Career College-Portland,-122.650703,45.528354,Oregon,446.0,446.0,0.0,Private for-profit,2-year
Concorde Career College-San Antonio,-98.582351,29.49003,Texas,676.0,676.0,0.0,Private for-profit,2-year
Concorde Career College-San Bernardino,-117.283995,34.066823,California,737.0,737.0,0.0,Private for-profit,2-year
Concorde Career College-San Diego,-117.102845,32.702814000000004,California,664.0,664.0,0.0,Private for-profit,2-year
Concorde Career College-Southaven,-89.988876,34.976181,Mississippi,345.0,345.0,0.0,Private for-profit,2-year
Concorde Career Institute-Jacksonville,-81.581748,30.23886,Florida,704.0,704.0,0.0,Private for-profit,2-year
Concorde Career Institute-Miramar,-80.291516,25.977088,Florida,559.0,559.0,0.0,Private for-profit,2-year
Concorde Career Institute-Orlando,-81.34042099999998,28.55984,Florida,462.0,462.0,0.0,Private for-profit,2-year
Concorde Career Institute-Tampa,-82.514341,27.959148,Florida,488.0,488.0,0.0,Private for-profit,2-year
Concordia College at Moorhead,-96.76749,46.862482,Minnesota,2129.0,2041.0,88.0,Private not-for-profit,4-year or above
Concordia College-New York,-73.82202,40.943382,New York,1737.0,1490.0,247.0,Private not-for-profit,4-year or above
Concordia University Texas,-97.835703,30.420232,Texas,2568.0,1387.0,1181.0,Private not-for-profit,4-year or above
Concordia University-Ann Arbor,-83.68268,42.273157,Michigan,1197.0,962.0,235.0,Private not-for-profit,4-year or above
Concordia University-Chicago,-87.80948199999997,41.898696,Illinois,6005.0,1713.0,4292.0,Private not-for-profit,4-year or above
Concordia University-Irvine,-117.812305,33.653665000000004,California,4162.0,3381.0,781.0,Private not-for-profit,4-year or above
Concordia University-Nebraska,-97.089054,40.914853,Nebraska,2424.0,1737.0,687.0,Private not-for-profit,4-year or above
Concordia University-Portland,-122.636941,45.570197,Oregon,5342.0,4300.0,1042.0,Private not-for-profit,4-year or above
Concordia University-Saint Paul,-93.154861,44.949759,Minnesota,5054.0,3487.0,1567.0,Private not-for-profit,4-year or above
Concordia University-Wisconsin,-87.91552,43.253387,Wisconsin,6374.0,3722.0,2652.0,Private not-for-profit,4-year or above
Connecticut College,-72.107321,41.37983300000001,Connecticut,1844.0,1798.0,46.0,Private not-for-profit,4-year or above
Connors State College,-95.319541,35.492873,Oklahoma,2090.0,1183.0,907.0,Public,2-year
Contra Costa College,-122.337377,37.969381,California,7193.0,1921.0,5272.0,Public,2-year
Converse College,-81.91788100000002,34.955534,South Carolina,1380.0,939.0,441.0,Private not-for-profit,4-year or above
Cooper Union for the Advancement of Science and Art,-73.991609,40.728148,New York,952.0,899.0,53.0,Private not-for-profit,4-year or above
Copiah-Lincoln Community College,-90.400234,31.69272,Mississippi,3094.0,2087.0,1007.0,Public,2-year
Copper Mountain Community College,-116.213939,34.140464,California,1748.0,585.0,1163.0,Public,2-year
Coppin State University,-76.658687,39.311258,Maryland,2738.0,1886.0,852.0,Public,4-year or above
Corban University,-122.961129,44.882399,Oregon,1183.0,949.0,234.0,Private not-for-profit,4-year or above
Cornell College,-91.423741,41.924554,Iowa,1028.0,1019.0,9.0,Private not-for-profit,4-year or above
Cornell University,-76.48308399999998,42.4472,New York,23600.0,23499.0,101.0,Private not-for-profit,4-year or above
Cornerstone University,-85.59532800000002,42.979966,Michigan,2131.0,1549.0,582.0,Private not-for-profit,4-year or above
Corning Community College,-77.072138,42.116736,New York,3424.0,1663.0,1761.0,Public,2-year
Cornish College of the Arts,-122.336238,47.618174,Washington,625.0,617.0,8.0,Private not-for-profit,4-year or above
Cortiva Institute-Maitland,-81.39717900000002,28.629921000000003,Florida,319.0,319.0,0.0,Private for-profit,2-year
Cortiva Institute-Miami,-80.325685,25.783553,Florida,109.0,109.0,0.0,Private for-profit,2-year
Cortiva Institute-Pompano,-80.150541,26.275351,Florida,150.0,150.0,0.0,Private for-profit,2-year
Cossatot Community College of the University of Arkansas,-94.3673,34.043389000000005,Arkansas,1518.0,470.0,1048.0,Public,2-year
Cosumnes River College,-121.423108,38.45295,California,14193.0,3749.0,10444.0,Public,2-year
Cottey College,-94.371311,37.83612700000001,Missouri,271.0,268.0,3.0,Private not-for-profit,4-year or above
County College of Morris,-74.57987299999998,40.859141,New Jersey,7556.0,3505.0,4051.0,Public,2-year
Covenant College,-85.375066,34.965161,Georgia,1046.0,1008.0,38.0,Private not-for-profit,4-year or above
Cowley County Community College,-97.043075,37.061668,Kansas,2664.0,1449.0,1215.0,Public,2-year
Cox College,-93.290233,37.225116,Missouri,919.0,471.0,448.0,Private not-for-profit,4-year or above
Coyne College,-87.627413,41.882558,Illinois,555.0,555.0,0.0,Private for-profit,2-year
Crafton Hills College,-117.101173,34.039178,California,6552.0,2015.0,4537.0,Public,2-year
Craven Community College,-77.102232,35.111515999999995,North Carolina,3003.0,1038.0,1965.0,Public,2-year
Creighton University,-95.947811,41.265361,Nebraska,8910.0,7119.0,1791.0,Private not-for-profit,4-year or above
Criswell College,-96.77669,32.793513,Texas,236.0,126.0,110.0,Private not-for-profit,4-year or above
Crossroads Bible College,-86.039961,39.779662,Indiana,157.0,23.0,134.0,Private not-for-profit,4-year or above
Crowder College,-94.368315,36.814906,Missouri,4521.0,1943.0,2578.0,Public,2-year
Crowley's Ridge College,-90.584395,36.064845,Arkansas,198.0,174.0,24.0,Private not-for-profit,4-year or above
Crown College,-93.743019,44.885393,Minnesota,1510.0,1043.0,467.0,Private not-for-profit,4-year or above
Cuesta College,-120.742235,35.331276,California,11024.0,3190.0,7834.0,Public,2-year
Culinary Institute Inc,-95.378633,29.823623,Texas,339.0,256.0,83.0,Private for-profit,2-year
Culinary Institute of America,-73.933231,41.745806,New York,2990.0,2990.0,0.0,Private not-for-profit,4-year or above
Culver-Stockton College,-91.529374,40.128993,Missouri,1068.0,965.0,103.0,Private not-for-profit,4-year or above
Cumberland County College,-75.057829,39.440537,New Jersey,2934.0,1431.0,1503.0,Public,2-year
Cumberland University,-86.29878199999997,36.204514,Tennessee,2405.0,1758.0,647.0,Private not-for-profit,4-year or above
CUNY Bernard M Baruch College,-73.983417,40.740238,New York,18029.0,12061.0,5968.0,Public,4-year or above
CUNY Borough of Manhattan Community College,-74.011826,40.71879000000001,New York,26506.0,18076.0,8430.0,Public,2-year
CUNY Bronx Community College,-73.91204300000003,40.858112,New York,10519.0,6685.0,3834.0,Public,2-year
CUNY Brooklyn College,-73.949898,40.631517,New York,18161.0,11737.0,6424.0,Public,4-year or above
CUNY City College,-73.948542,40.81984600000001,New York,16043.0,10988.0,5055.0,Public,4-year or above
CUNY Graduate School and University Center,-73.983822,40.748612,New York,8041.0,3969.0,4072.0,Public,4-year or above
CUNY Hostos Community College,-73.92675899999998,40.81812,New York,7331.0,4138.0,3193.0,Public,2-year
CUNY Hunter College,-73.964795,40.768669,New York,23202.0,14635.0,8567.0,Public,4-year or above
CUNY John Jay College of Criminal Justice,-73.98841,40.770351,New York,15394.0,11128.0,4266.0,Public,4-year or above
CUNY Kingsborough Community College,-73.935812,40.577222,New York,15051.0,8154.0,6897.0,Public,2-year
CUNY LaGuardia Community College,-73.935057,40.7445,New York,19300.0,10671.0,8629.0,Public,2-year
CUNY Lehman College,-73.895379,40.872962,New York,14787.0,8008.0,6779.0,Public,4-year or above
CUNY Medgar Evers College,-73.957076,40.666256,New York,6638.0,4705.0,1933.0,Public,4-year or above
CUNY New York City College of Technology,-73.98785600000002,40.695483,New York,17269.0,10902.0,6367.0,Public,4-year or above
CUNY Queens College,-73.816098,40.735182,New York,19746.0,12631.0,7115.0,Public,4-year or above
CUNY Queensborough Community College,-73.756656,40.755481,New York,15411.0,9232.0,6179.0,Public,2-year
CUNY York College,-73.796313,40.701576,New York,8693.0,5232.0,3461.0,Public,4-year or above
Curry College,-71.116539,42.238061,Massachusetts,2580.0,2045.0,535.0,Private not-for-profit,4-year or above
Curtis Institute of Music,-75.170727,39.948857,Pennsylvania,171.0,171.0,0.0,Private not-for-profit,4-year or above
Cuyahoga Community College District,-81.683533,41.494906,Ohio,23440.0,6980.0,16460.0,Public,2-year
Cuyamaca College,-116.943507,32.744954,California,8824.0,2241.0,6583.0,Public,2-year
Cypress College,-118.025143,33.82833,California,15794.0,5096.0,10698.0,Public,4-year or above
D'Youville College,-78.89086800000003,42.902636,New York,3045.0,2146.0,899.0,Private not-for-profit,4-year or above
Dabney S Lancaster Community College,-79.852536,37.812275,Virginia,981.0,405.0,576.0,Public,2-year
Daemen College,-78.788111,42.965605,New York,2574.0,2062.0,512.0,Private not-for-profit,4-year or above
Dakota College at Bottineau,-100.441103,48.832505,North Dakota,996.0,395.0,601.0,Public,2-year
Dakota County Technical College,-93.07805,44.737255,Minnesota,2523.0,1343.0,1180.0,Public,2-year
Dakota State University,-97.113358,44.013014,South Dakota,3382.0,1517.0,1865.0,Public,4-year or above
Dakota Wesleyan University,-98.031188,43.697432,South Dakota,1024.0,722.0,302.0,Private not-for-profit,4-year or above
Dallas Baptist University,-96.947006,32.710017,Texas,4766.0,3077.0,1689.0,Private not-for-profit,4-year or above
Dallas Christian College,-96.887117,32.913692,Texas,213.0,167.0,46.0,Private not-for-profit,4-year or above
Dallas Institute of Funeral Service,-96.683404,32.771368,Texas,187.0,187.0,0.0,Private not-for-profit,2-year
Dallas Nursing Institute,-96.75721,32.979753,Texas,225.0,142.0,83.0,Private not-for-profit,4-year or above
Dalton State College,-85.002775,34.774221000000004,Georgia,5118.0,3190.0,1928.0,Public,4-year or above
Danville Area Community College,-87.587884,40.127539,Illinois,2620.0,966.0,1654.0,Public,2-year
Danville Community College,-79.408803,36.565286,Virginia,2828.0,987.0,1841.0,Public,2-year
Dartmouth College,-72.289949,43.704115,New Hampshire,6572.0,6436.0,136.0,Private not-for-profit,4-year or above
Davenport University,-85.533519,42.850013,Michigan,6746.0,2731.0,4015.0,Private not-for-profit,4-year or above
Davidson College,-80.843979,35.499767,North Carolina,1843.0,1843.0,0.0,Private not-for-profit,4-year or above
Davidson County Community College,-80.18186800000002,35.865471,North Carolina,3654.0,1446.0,2208.0,Public,2-year
Davis & Elkins College,-79.84602199999998,38.931232,West Virginia,793.0,743.0,50.0,Private not-for-profit,4-year or above
Davis College,-83.62975300000002,41.692513,Ohio,71.0,31.0,40.0,Private for-profit,2-year
Davis College,-75.96251,42.101074,New York,241.0,125.0,116.0,Private not-for-profit,4-year or above
Dawson Community College,-104.725485,47.085396,Montana,413.0,179.0,234.0,Public,2-year
Daytona College,-81.080155,29.270088,Florida,259.0,259.0,0.0,Private for-profit,4-year or above
Daytona State College,-81.049685,29.203275,Florida,13737.0,5366.0,8371.0,Public,4-year or above
De Anza College,-122.045558,37.320788,California,19482.0,9210.0,10272.0,Public,2-year
Dean College,-71.397813,42.08563400000001,Massachusetts,1320.0,1152.0,168.0,Private not-for-profit,4-year or above
Dean Institute of Technology,-80.015343,40.410325,Pennsylvania,146.0,108.0,38.0,Private for-profit,2-year
Defiance College,-84.357075,41.296842,Ohio,545.0,487.0,58.0,Private not-for-profit,4-year or above
Del Mar College,-97.40762,27.763619,Texas,11867.0,2610.0,9257.0,Public,2-year
Delaware College of Art and Design,-75.549882,39.741947,Delaware,118.0,105.0,13.0,Private not-for-profit,2-year
Delaware County Community College,-75.39308,39.966724,Pennsylvania,11314.0,3083.0,8231.0,Public,2-year
Delaware State University,-75.54053,39.187173,Delaware,4586.0,4020.0,566.0,Public,4-year or above
Delaware Technical Community College-Terry,-75.56012,39.198371,Delaware,13895.0,4629.0,9266.0,Public,4-year or above
Delaware Valley University,-75.158452,40.298659,Pennsylvania,2428.0,1916.0,512.0,Private not-for-profit,4-year or above
Delgado Community College,-90.103962,29.985149,Louisiana,14258.0,5733.0,8525.0,Public,2-year
Delta College,-83.985943,43.559491,Michigan,8080.0,2848.0,5232.0,Public,2-year
Delta College of Arts & Technology,-91.113841,30.463619,Louisiana,252.0,252.0,0.0,Private for-profit,2-year
Delta State University,-90.735365,33.744745,Mississippi,3715.0,2260.0,1455.0,Public,4-year or above
Denison University,-82.52327199999998,40.071505,Ohio,2394.0,2365.0,29.0,Private not-for-profit,4-year or above
Denmark Technical College,-81.12362900000002,33.313355,South Carolina,489.0,248.0,241.0,Public,2-year
Denver College of Nursing,-104.994725,39.75303,Colorado,878.0,878.0,0.0,Private for-profit,4-year or above
DePaul University,-87.62724,41.877618,Illinois,22437.0,18185.0,4252.0,Private not-for-profit,4-year or above
DePauw University,-86.860363,39.640904,Indiana,2156.0,2139.0,17.0,Private not-for-profit,4-year or above
Des Moines Area Community College,-93.611597,41.707348,Iowa,23474.0,6430.0,17044.0,Public,2-year
DeSales University,-75.375608,40.539091,Pennsylvania,3438.0,2361.0,1077.0,Private not-for-profit,4-year or above
Design Institute of San Diego,-117.167374,32.880926,California,98.0,59.0,39.0,Private for-profit,4-year or above
DeVry College of New York,-73.983492,40.747747,New York,1471.0,723.0,748.0,Private for-profit,4-year or above
DeVry University-Arizona,-112.104601,33.565758,Arizona,478.0,170.0,308.0,Private for-profit,4-year or above
DeVry University-California,-117.803784,34.062904,California,2499.0,1074.0,1425.0,Private for-profit,4-year or above
DeVry University-Colorado,-105.008901,39.91934000000001,Colorado,171.0,62.0,109.0,Private for-profit,4-year or above
DeVry University-Florida,-80.339842,25.987643,Florida,804.0,319.0,485.0,Private for-profit,4-year or above
DeVry University-Georgia,-84.29731600000002,33.775112,Georgia,1181.0,499.0,682.0,Private for-profit,4-year or above
DeVry University-Illinois,-87.69145999999998,41.94219,Illinois,17364.0,5373.0,11991.0,Private for-profit,4-year or above
DeVry University-Indiana,-87.325889,41.474094,Indiana,62.0,26.0,36.0,Private for-profit,4-year or above
DeVry University-Missouri,-94.575014,38.939506,Missouri,111.0,40.0,71.0,Private for-profit,4-year or above
DeVry University-Nevada,-115.096601,36.020266,Nevada,114.0,53.0,61.0,Private for-profit,4-year or above
DeVry University-New Jersey,-74.43860600000002,40.466026,New Jersey,387.0,193.0,194.0,Private for-profit,4-year or above
DeVry University-North Carolina,-80.93197099999998,35.13766,North Carolina,118.0,30.0,88.0,Private for-profit,4-year or above
DeVry University-Ohio,-82.940506,39.940586,Ohio,772.0,308.0,464.0,Private for-profit,4-year or above
DeVry University-Pennsylvania,-75.18360899999998,40.13521400000001,Pennsylvania,297.0,104.0,193.0,Private for-profit,4-year or above
DeVry University-Tennessee,-86.694511,36.08537000000001,Tennessee,48.0,17.0,31.0,Private for-profit,4-year or above
DeVry University-Texas,-97.012494,32.934524,Texas,642.0,275.0,367.0,Private for-profit,4-year or above
DeVry University-Virginia,-77.050273,38.852326,Virginia,374.0,118.0,256.0,Private for-profit,4-year or above
Diablo Valley College,-122.073142,37.968516,California,20271.0,7440.0,12831.0,Public,2-year
Dickinson College,-77.197854,40.202796,Pennsylvania,2399.0,2361.0,38.0,Private not-for-profit,4-year or above
Dickinson State University,-102.799679,46.882917,North Dakota,1392.0,902.0,490.0,Public,4-year or above
DigiPen Institute of Technology,-122.150603,47.68871,Washington,970.0,903.0,67.0,Private for-profit,4-year or above
Dillard University,-90.06464,29.996587,Louisiana,1309.0,1223.0,86.0,Private not-for-profit,4-year or above
Dine College,-109.21684,36.293328,Arizona,1519.0,842.0,677.0,Public,4-year or above
Divine Word College,-90.934578,42.441721,Iowa,57.0,57.0,0.0,Private not-for-profit,4-year or above
Dixie State University,-113.565903,37.102769,Utah,9950.0,6125.0,3825.0,Public,4-year or above
